_id,pin,address,billing_city,current_delq_tax,current_delq_pi,prior_years,prior_delq_tax,prior_delq_pi,state_description,neighborhood,council_district,ward,public_works_division,pli_division,police_zone,fire_zone,longitude,latitude
1978549,0032E00294000000,HORN ST,"PITTSBURGH, PA",55.35,0,0,0,0,Residential,,,,,,,,,
1978550,0033C00201000000,501 BROWNSVILLE RD,"ROCKVILLE, MD",24.27,0,0,0,0,Commercial,,,,,,,,,
1978551,0008D00020000002,412 E COMMONS,"PITTSBURGH, PA",16448.78,0,0,0,0,Commercial,Allegheny Center,1,22,1,22,1,1-6,-80.00240627879427,40.45130651885126
1978552,0008D00020000001,412 E COMMONS,"PITTSBURGH, PA",226.82,0,0,0,0,Commercial,Allegheny Center,1,22,1,22,1,1-6,-80.00285552081374,40.45122049816906
1978553,0008C00155000400,1 ALLEGHENY SQ,"PITTSBURGH, PA",4112.16,0,0,0,0,Commercial,Allegheny Center,1,22,1,22,1,1-6,-80.00582464304614,40.45180879533943
1978554,0007D00268858200,858 N LINCOLN AVE UNIT 2,"ALLISON PARK, PA",1029.24,0,0,0,0,Residential,Allegheny West,1,22,1,22,1,1-7,-80.01614931787361,40.45125075757777
1978555,0007D00268085600,856 N LINCOLN AVE,"ALLISON PARK, PA",1029.24,0,0,0,0,Residential,Allegheny West,1,22,1,22,1,1-7,-80.01610136274532,40.45121823803873
1978556,0008A00015000000,806 WESTERN AVE,"PITTSBURGH, PA",2826.61,0,0,0,0,Commercial,Allegheny West,1,22,1,22,1,1-7,-80.01446102145411,40.4524959171477
1978557,0007D00268858300,858 N LINCOLN AVE UNIT 3,"ALLISON PARK, PA",1029.24,0,0,0,0,Residential,Allegheny West,1,22,1,22,1,1-7,-80.01611393833285,40.451257755067566
1978558,0007D00268858100,858 N LINCOLN AVE UNIT 1,"ALLISON PARK, PA",1029.24,0,0,0,0,Residential,Allegheny West,1,22,1,22,1,1-7,-80.01613645746858,40.45121105533497
1978559,0022S00061000000,930 BEECH AVE,"PITTSBURGH, PA",6148.76,0,0,0,0,Residential,Allegheny West,1,22,1,22,1,1-7,-80.018189475749,40.452796285639515
1978560,0022S00108000000,909 W NORTH AVE,"PITTSBURGH, PA",499.37,0,0,0,0,Residential,Allegheny West,1,22,1,22,1,1-7,-80.01741492984365,40.45325815441406
1978561,0007D00268856400,858 N LINCOLN AVE UNIT 4,"ALLISON PARK, PA",1029.24,0,0,0,0,Residential,Allegheny West,1,22,1,22,1,1-7,-80.01614396356048,40.45129339800875
1978562,0007D00185000000,939 WESTERN AVE,"PITTSBURGH, PA",9566.96,0,0,0,0,Commercial,Allegheny West,1,22,1,22,1,1-7,-80.01792629151932,40.451445557135735
1978563,0008A00014000000,901 BRIGHTON RD,"PITTSBURGH, PA",472.69,0,0,0,0,Commercial,Allegheny West,1,22,1,22,1,1-7,-80.01431657713043,40.45252555861548
1978564,0022S00111000000,915 W NORTH AVE,"PITTSBURGH, PA",4561.07,0,0,0,0,Residential,Allegheny West,1,22,1,22,1,1-7,-80.01761819884047,40.45321929667879
1978565,0022S00105000000,1019 GALVESTON AVE,"IRVING, TX",1639.18,0,0,0,0,Residential,Allegheny West,1,22,1,22,1,1-7,-80.01720726234183,40.45335050867386
1978566,0014A00306000000,703 EXCELSIOR ST,"PITTSBURGH, PA",762.4,0,0,0,0,Residential,Allentown,3,18,4,18,3,4-5,-79.9957065393802,40.422888734329774
1978567,0014C00085000000,1089 ARLINGTON AVE,"PITTSBURGH, PA",86.28,0,0,0,0,Residential,Allentown,3,18,4,18,3,4-5,-79.99043759986989,40.422697995718536
1978568,0003P00228000000,830 MCLAIN ST,"PITTSBURGH, PA",444.11,0,0,0,0,Residential,Allentown,3,18,4,18,3,4-5,-79.99289992875758,40.4241058802396
1978569,0014L00024000000,944 LILLIAN ST,"PITTSBURGH, PA",13.22,0,0,0,0,Residential,Allentown,3,18,4,18,3,4-6,-79.9890709311323,40.41868587402075
1978570,0003N00141000000,609 EUREKA ST,"PITTSBURGH, PA",26.68,0,0,0,0,Residential,Allentown,3,18,4,18,3,4-5,-79.99727055254627,40.42381301539166
1978571,0014B00329000000,40 EMERALD ST,"PITTSBURGH, PA",56.39,0,0,0,0,Residential,Allentown,3,18,4,18,3,4-5,-79.99173627594563,40.42253644261579
1978572,0014B00013000000,21 ALLEN ST,"BEAVER FALLS, PA",665.2,0,0,0,0,Residential,Allentown,3,18,4,18,3,4-5,-79.99400731249989,40.42340868421142
1978573,0014G00009000000,332 KNOX AVE,"PITTSBURGH, PA",346.91,0,0,0,0,Residential,Allentown,3,18,4,18,3,4-6,-79.99094830052175,40.41929233428575
1978574,0014E00252000000,625 FREELAND ST,"PITTSBURGH, PA",434.57,0,0,0,0,Residential,Allentown,3,18,4,18,3,4-21,-79.99631640973726,40.419326062042906
1978575,0014C00285000000,950 E WARRINGTON AVE,"PITTSBURGH, PA",192.51,0,0,0,0,Residential,Allentown,3,18,4,18,3,4-6,-79.9897503890082,40.4216515653996
1978576,0014E00174000100,621 INDUSTRY ST,"PITTSBURGH, PA",152.5,0,0,0,0,Residential,Allentown,3,18,4,18,3,4-21,-79.99644858494464,40.420956374489045
1978577,0014C00341000000,969 MANTON WAY,"SAN ANTONIO, TX",568.01,0,0,0,0,Residential,Allentown,3,18,4,18,3,4-6,-79.98913365415656,40.42150416370869
1978578,0014B00180000000,836 EUREKA ST,"PITTSBURGH, PA",385.03,0,0,0,0,Residential,Allentown,3,18,4,18,3,4-5,-79.9924240002697,40.42351798816178
1978579,0014B00134000000,728 E WARRINGTON AVE,"PITTSBURGH, PA",1238.9,0,0,0,0,Commercial,Allentown,3,18,4,18,3,4-21,-79.99466401165806,40.421637565959536
1978580,0014F00083000000,738 FREELAND ST,"SOUTH PARK, PA",308.77,0,0,0,0,Residential,Allentown,3,18,4,18,3,4-21,-79.99426407373441,40.41901057234451
1978581,0003P00234000000,835 EUREKA ST,"SANFORD, NC",476.52,0,0,0,0,Residential,Allentown,3,18,4,18,3,4-5,-79.9924682218855,40.423911022116656
1978582,0014F00011000000,320 WALTER ST,"BROOKLYN, NY",690,0,0,0,0,Residential,Allentown,3,18,4,18,3,4-21,-79.99500005362158,40.41929580623595
1978583,0014F00313000000,825 FREELAND ST,"PITTSBURGH, PA",615.65,0,0,0,0,Residential,Allentown,3,18,4,18,3,4-6,-79.99261257172006,40.41939973203487
1978584,0014E00188000000,636 INDUSTRY ST,"PITTSBURGH, PA",648.06,0,0,0,0,Residential,Allentown,3,18,4,18,3,4-21,-79.99592434347832,40.42062825479176
1978585,0014A00209000000,66 MILLBRIDGE ST,"PITTSBURGH, PA",1296.08,0,0,0,0,Residential,Allentown,3,18,4,18,3,4-5,-79.9959845142573,40.42224683313302
1978586,0014F00353000000,830 FREELAND ST,"PITTSBURGH, PA",438.4,0,0,0,0,Residential,Allentown,3,18,4,18,3,4-6,-79.9924217137399,40.41897142075466
1978587,0003P00027000000,29 ROANOKE ST,"BETHEL PARK, PA",3680.49,0,0,0,0,Residential,Allentown,2,18,4,18,3,4-5,-79.99253170064301,40.42600679054933
1978588,0014G00092000000,1511 ARLINGTON AVE,"PITTSBURGH, PA",712.85,0,0,0,0,Residential,Allentown,3,18,4,18,3,4-6,-79.98872119610627,40.419048601730594
1978589,0014E00251000000,621 FREELAND ST,"MAYWOOD, NJ",409.8,0,0,0,0,Residential,Allentown,3,18,4,18,3,4-21,-79.99641574429121,40.419240883428365
1978590,0003P00266000000,19 EMERALD ST,"PITTSBURGH, PA",153.3,0,0,0,0,Residential,Allentown,3,18,4,18,3,4-5,-79.99197224210803,40.423695352602095
1978591,0003P00257000000,913 EUREKA ST,"GREENTOWN, PA",621.38,0,0,0,0,Residential,Allentown,3,18,4,18,3,4-5,-79.99130758107934,40.424037203424966
1978592,0014C00024000000,920 EXCELSIOR ST,"PITTSBURGH, PA",495.58,0,0,0,0,Residential,Allentown,3,18,4,18,3,4-5,-79.99108582463052,40.423036034078365
1978593,0014C00353000000,941 MANTON WAY,"PITTSBURGH, PA",28.19,0,0,0,0,Residential,Allentown,3,18,4,18,3,4-6,-79.9902164506183,40.4214866548008
1978594,0014B00204000000,840 CERES WAY,"SOUTH PARK, PA",514.64,0,0,0,0,Residential,Allentown,3,18,4,18,3,4-5,-79.99219454892108,40.42315723470653
1978595,0014F00013000000,316 WALTER ST,"PITTSBURGH, PA",388.85,0,0,0,0,Residential,Allentown,3,18,4,18,3,4-21,-79.99499836615252,40.41943125602592
1978596,0014E00208000000,611 CLIMAX ST,"PITTSBURGH, PA",1768.79,0,0,0,0,Commercial,Allentown,3,18,4,18,3,4-21,-79.99669509867054,40.4201638617745
1978597,0014K00043000000,852 LILLIAN ST,"PITTSBURGH, PA",274.48,0,0,0,0,Residential,Allentown,3,18,4,18,3,4-6,-79.99157880339129,40.41859719915006
1978598,0014A00239000000,73 BELTZHOOVER AVE,"PITTSBURGH, PA",255.42,0,0,0,0,Residential,Allentown,3,18,4,18,3,4-5,-79.99724688739884,40.42302067560775
1978599,0014B00271000000,821 CARNIVAL WAY,"BREA, CA",322.13,0,0,0,0,Residential,Allentown,3,18,4,18,3,4-5,-79.99297338719768,40.42246411735918
1978600,0014E00189000000,632 INDUSTRY ST,"PITTSBURGH, PA",518.45,0,0,0,0,Residential,Allentown,3,18,4,18,3,4-21,-79.99601762559129,40.420566391207366
1978601,0014B00119000000,737 E WARRINGTON AVE,"PITTSBURGH, PA",2303.2,0,0,0,0,Commercial,Allentown,3,18,4,18,3,4-5,-79.99446015778918,40.42207119995678
1978602,0014F00329000000,850 LOYAL WAY,"WESTLAKE, TX",219.2,0,0,0,0,Residential,Allentown,3,18,4,18,3,4-6,-79.99171108830342,40.41950202583683
1978603,0014G00196000000,905 CLIMAX ST,"OKLAHOMA CITY, OK",177.97,0,0,0,0,Residential,Allentown,3,18,4,18,3,4-6,-79.99020135904927,40.42026363938131
1978604,0014C00293000000,971 MANTON WAY,"PITTSBURGH, PA",890.12,0,0,0,0,Residential,Allentown,3,18,4,18,3,4-6,-79.98902509309941,40.421574583257126
1978605,0014C00266000000,917 E WARRINGTON AVE,"PITTSBURGH, PA",247.78,0,0,0,0,Residential,Allentown,3,18,4,18,3,4-6,-79.9910217813281,40.4219709559968
1978606,0014E00281000000,622 FREELAND ST,"PITTSBURGH, PA",463.17,0,0,0,0,Residential,Allentown,3,18,4,18,3,4-21,-79.99639300423081,40.41899228088927
1978607,0013R00085000000,229 ROTHMAN ST,"PITTSBURGH, PA",198.22,0,0,0,0,Residential,Arlington,3,16,4,16,3,4-8,-79.97258091710438,40.415052569554554
1978608,0013P00009000A00,2125 JONQUIL WAY,"KINGSTON, TN",375.5,0,0,0,0,Residential,Arlington,3,16,4,16,3,4-8,-79.97657307777497,40.416130099421125
1978609,0013P00041000000,227 STERLING ST,"PITTSBURGH, PA",203.94,0,0,0,0,Residential,Arlington,3,16,4,16,3,4-8,-79.97458476687743,40.41524634194777
1978610,0013L00334000000,2325 SPRING ST,"PITTSBURGH, PA",554.66,0,0,0,0,Residential,Arlington,3,16,4,16,3,4-8,-79.97369114505337,40.41640856652732
1978611,0013L00188000000,124 FITLER ST,"PITTSBURGH, PA",712.87,0,0,0,0,Residential,Arlington,3,16,4,16,3,4-8,-79.97076973486297,40.4169032341157
1978612,0013M00239000000,124 RINNE ST,"PITTSBURGH, PA",43.17,0,0,0,0,Residential,Arlington,3,16,4,16,3,4-8,-79.96888579353944,40.41657987140278
1978613,0013P00040000000,225 STERLING ST,"PITTSBURGH, PA",188.06,0,0,0,0,Residential,Arlington,3,16,4,16,3,4-8,-79.97458314431317,40.41531399031073
1978614,0013P00134000000,215 FERNLEAF ST,"PITTSBURGH, PA",68.72,0,0,0,0,Residential,Arlington,3,16,4,16,3,4-8,-79.97591708386307,40.41561064403992
1978615,0013R00221000000,2432 SPRING ST,"PITTSBURGH, PA",74.53,0,0,0,0,Residential,Arlington,3,16,4,16,3,4-8,-79.97185203547944,40.41578292549983
1978616,0013L00228000000,2338 ARLINGTON AVE,"PITTSBURGH, PA",38.05,0,0,0,0,Commercial,Arlington,3,16,4,16,3,4-22,-79.97304476578002,40.417226763282464
1978617,0013K00094000000,2025 NORTE WAY,"PITTSBURGH, PA",371.68,0,0,0,0,Residential,Arlington,3,16,4,16,3,4-8,-79.97750189318796,40.41752626772119
1978618,0013L00202000000,117 CLOVER ST,"PITTSBURGH, PA",184.14,0,0,0,0,Residential,Arlington,3,16,4,16,3,4-8,-79.97118126661533,40.41701938914006
1978619,0032D00208000000,101 EADS ST,"PITTSBURGH, PA",556.55,0,0,0,0,Residential,Arlington,3,16,4,16,3,4-13,-79.96841177998041,40.41259526302736
1978620,0013L00241000000,ARLINGTON AVE,"PITTSBURGH, PA",20.98,0,0,0,0,Residential,Arlington,3,16,4,16,3,4-22,-79.97385473166197,40.41710417526384
1978621,0013S00231000000,225 GOLDBACH ST,"PITTSBURGH, PA",46.47,0,0,0,0,Residential,Arlington,3,16,4,16,3,4-8,-79.96939236708295,40.41484105509036
1978622,0031E00167000000,738 BAJO ST,"PITTSBURGH, PA",144.86,0,0,0,0,Residential,Arlington,3,16,4,16,3,4-13,-79.96426188025274,40.40959832134744
1978623,0030N00025000000,2939 SPRING ST,"PITTSBURGH, PA",182.37,0,0,0,0,Residential,Arlington,3,16,4,16,3,4-8,-79.96556216670979,40.415695992237424
1978624,0031A00132000000,404 FELMETH ST,"NEDERLAND, TX",798.57,0,0,0,0,Residential,Arlington,3,16,4,16,3,4-8,-79.96381050203486,40.41308824593824
1978625,0013L00227000000,2400 ARLINGTON AVE,"PITTSBURGH, PA",1339.92,0,0,0,0,Commercial,Arlington,3,16,4,16,3,4-22,-79.9728573208422,40.41720366622932
1978626,0013K00244000000,2219 SPRING ST,"PITTSBURGH, PA",842.45,0,0,0,0,Residential,Arlington,3,16,4,16,3,4-8,-79.97519103809536,40.41654098930263
1978627,0013M00250000000,119 RINNE ST,"PITTSBURGH, PA",665.21,0,0,0,0,Residential,Arlington,3,16,4,16,3,4-8,-79.96835598164888,40.41671437127195
1978628,0013N00223000000,439 PARKWOOD RD,"POMONA, CA",190.6,0,0,0,0,Residential,Arlington,3,16,4,16,3,4-8,-79.97976988407108,40.41453513947312
1978629,0013L00246000000,2304 ARLINGTON AVE,"IMPERIAL, PA",590.86,0,0,0,0,Residential,Arlington,3,16,4,16,3,4-8,-79.97431840737272,40.41698600858878
1978630,0013M00234000000,114 RINNE ST,"PITTSBURGH, PA",157.7,0,0,0,0,Residential,Arlington,3,16,4,16,3,4-8,-79.9688348458542,40.41685542774131
1978631,0013P00047000000,239 STERLING ST,"PITTSBURGH, PA",240.79,0,0,0,0,Residential,Arlington,3,16,4,16,3,4-8,-79.97465970432647,40.41483397578913
1978632,0013P00034000000,211 STERLING ST,"PITTSBURGH, PA",362.38,0,0,0,0,Residential,Arlington,3,16,4,16,3,4-8,-79.97449958108093,40.415760271466176
1978633,0013R00264000000,2429 SPRING ST,"SEWICKLEY, PA",648.04,0,0,0,0,Residential,Arlington,3,16,4,16,3,4-8,-79.97204670566205,40.41623844033138
1978634,0030N00036000000,2938 SPRING ST,"IRVING, TX",168.28,0,0,0,0,Residential,Arlington,3,16,4,16,3,4-8,-79.96588578122342,40.41535631354097
1978635,0013R00229000000,2416 SPRING ST,"PITTSBURGH, PA",642.33,0,0,0,0,Residential,Arlington,3,16,4,16,3,4-8,-79.97253637031287,40.41585318498693
1978636,0013M00246000000,127 RINNE ST,"PITTSBURGH, PA",35.25,0,0,0,0,Residential,Arlington,3,16,4,16,3,4-8,-79.96840488612905,40.41645646831885
1978637,0013P00017000000,2204 SPRING ST,"PITTSBURGH, PA",571.8,0,0,0,0,Residential,Arlington,3,16,4,16,3,4-8,-79.97583897888877,40.416148246062974
1978638,0013M00203000000,2700 ARLINGTON AVE,"PITTSBURGH, PA",91.64,0,0,0,0,Residential,Arlington,3,16,4,16,3,4-22,-79.96974074371597,40.417351562973536
1978639,0013N00221000000,439 PARKWOOD RD,"POMONA, CA",59.03,0,0,0,0,Residential,Arlington,3,16,4,16,3,4-8,-79.97989252195363,40.41452589654124
1978640,0013P00038000000,223 STERLING ST,"PITTSBURGH, PA",263.03,0,0,0,0,Residential,Arlington,3,16,4,16,3,4-8,-79.97456531808147,40.41538277790988
1978641,0013S00118000000,2922 DEVLIN ST,"PITTSBURGH, PA",209.66,0,0,0,0,Residential,Arlington,3,16,4,16,3,4-8,-79.9665977164397,40.414639345415914
1978642,0013S00223000000,WIESE ST,"PITTSBURGH, PA",192.52,0,0,0,0,Residential,Arlington,3,16,4,16,3,4-8,-79.96939026696685,40.41433685746237
1978643,0013P00092000000,228 STERLING ST,"PITTSBURGH, PA",191.23,0,0,0,0,Residential,Arlington,3,16,4,16,3,4-8,-79.97522746821059,40.41527518287563
1978644,0013L00342000000,2311 SPRING ST,"PITTSBURGH, PA",223.63,0,0,0,0,Residential,Arlington,3,16,4,16,3,4-8,-79.9741578888364,40.41646116146096
1978645,0013P00083000000,258 STERLING ST,"PITTSBURGH, PA",251.97,0,0,0,0,Residential,Arlington,3,16,4,16,3,4-8,-79.97525384822374,40.41437793628302
1978646,0013S00221000000,2808 WIESE ST,"PITTSBURGH, PA",568.01,0,0,0,0,Residential,Arlington,3,16,4,16,3,4-8,-79.96921049750623,40.41431915944566
1978647,0036F00186000000,2645 WINCHESTER DR,"CARNEGIE, PA",410.81,0,0,0,0,Residential,Banksville,2,20,5,20,6,4-9,-80.04312985077094,40.41096024891992
1978648,0063F00053000000,2210 MCMONAGLE AVE,"PITTSBURGH, PA",37.86,0,0,0,0,Residential,Banksville,2,20,5,20,6,4-9,-80.04503760255086,40.40023154664642
1978649,0063E00042000000,2245 OLD OAK DR,"DES MOINES, IA",1254.9,0,0,0,0,Residential,Banksville,2,20,5,20,6,4-9,-80.04583277054887,40.40127625869714
1978650,0017M00214000000,155 BANKSVILLE PL,"PITTSBURGH, PA",2369.17,0,0,0,0,Residential,Banksville,2,20,5,20,6,4-9,-80.03333901756113,40.41711169735833
1978651,0017M00213000000,151 BANKSVILLE PL,"PITTSBURGH, PA",2380.61,0,0,0,0,Residential,Banksville,2,20,5,20,6,4-9,-80.03340388201183,40.41709323132295
1978652,0036P00102000000,2297 CRESTVIEW RD,"PITTSBURGH, PA",664.97,0,0,0,0,Residential,Banksville,2,20,5,20,6,4-9,-80.04246187067658,40.4057462204031
1978653,0036D00120000000,ROSEBERRY ST,"PITTSBURGH, PA",310.69,0,0,0,0,Residential,Banksville,2,20,5,20,6,4-9,-80.03284330720625,40.41294158427033
1978654,0063F00254000000,2945 STRACHAN AVE,"IRVING, TX",1757.36,0,0,0,0,Residential,Banksville,2,20,5,20,6,4-9,-80.0413458642902,40.40044406736088
1978655,0036J00180000000,2460 POTOMAC AVE,"POMONA, CA",30.67,0,0,0,0,Residential,Banksville,2,20,5,20,6,4-9,-80.04739655052992,40.40794018789148
1978656,0036B00055000000,1348 CARNAHAN RD,"SPRINGFIELD, IL",3557.35,0,0,0,0,Residential,Banksville,2,20,5,20,6,4-9,-80.04204094934067,40.41315537647661
1978657,0063G00016000000,2930 STRACHAN AVE,"PITTSBURGH, PA",2226.21,0,0,0,0,Residential,Banksville,2,20,5,20,6,4-9,-80.04109726981966,40.401147944361355
1978658,0017M00211000000,143 BANKSVILLE PL,"PITTSBURGH, PA",2371.07,0,0,0,0,Residential,Banksville,2,20,5,20,6,4-9,-80.03354249276566,40.417066595366194
1978659,0035A00295000000,ROSEBERRY ST,"PITTSBURGH, PA",299.25,0,0,0,0,Residential,Banksville,2,20,5,20,6,4-9,-80.03236276513243,40.412679685970645
1978660,0036N00269000000,2430 PIN OAK PL,"PITTSBURGH, PA",1727.58,0,0,0,0,Residential,Banksville,2,20,5,20,6,4-9,-80.04807158110081,40.40631222252351
1978661,0063E00214000000,2333 MCMONAGLE AVE,"PITTSBURGH, PA",2090.89,0,0,0,0,Residential,Banksville,2,20,5,20,6,4-9,-80.04818971242304,40.40053702997773
1978662,0035A00290000000,ROSEBERRY ST,"PITTSBURGH, PA",308.77,0,0,0,0,Residential,Banksville,2,20,5,20,6,4-9,-80.03246658025763,40.412419596088
1978663,0063C00214000000,2725 STRACHAN AVE,"PITTSBURGH, PA",359.35,0,0,0,0,Residential,Banksville,2,20,5,20,6,4-9,-80.03841864661612,40.40272729461942
1978664,0017P00112000000,1496 DALELAND AVE,"PITTSBURGH, PA",1141.59,0,0,0,0,Residential,Banksville,2,20,5,20,6,4-9,-80.0420220022089,40.415674139749285
1978665,0036J00105000000,2576 ALLENDER AVE,"PITTSBURGH, PA",1096.69,0,0,0,0,Residential,Banksville,2,20,5,20,6,4-9,-80.04711447168994,40.40690249966381
1978666,0063E00216000000,2501 N MEADOWCROFT AVE,"PITTSBURGH, PA",35.81,0,0,0,0,Residential,Banksville,,,5,,,,-80.04837248554004,40.40060985420919
1978667,0036D00115000000,ROSEBERRY ST,"PITTSBURGH, PA",310.69,0,0,0,0,Residential,Banksville,2,20,5,20,6,4-9,-80.03304180446787,40.412725841379206
1978668,0035A00285000000,ROSEBERRY ST,"PITTSBURGH, PA",310.69,0,0,0,0,Residential,Banksville,2,20,5,20,6,4-9,-80.03263717653385,40.41220234834057
1978669,0063E00140000000,2384 MCMONAGLE AVE,"PITTSBURGH, PA",43.67,0,0,0,0,Residential,Banksville,2,20,5,20,6,4-9,-80.04943600973769,40.40139132484456
1978670,0017P00082000000,1499 DALELAND AVE,"PITTSBURGH, PA",47.59,0,0,0,0,Residential,Banksville,2,20,5,20,6,4-9,-80.04182940432177,40.4150725004524
1978671,0063E00100000000,2311 ALLENDER AVE,"PITTSBURGH, PA",1165.31,0,0,0,0,Residential,Banksville,2,20,5,20,6,4-9,-80.04719640367574,40.401161403059696
1978672,0036D00100000000,1535 ROSEBERRY ST,"PITTSBURGH, PA",1634.18,0,0,0,0,Residential,Banksville,2,20,5,20,6,4-9,-80.03345734023571,40.412260608135
1978673,0036K00214000000,2370 CRESTVIEW RD,"PITTSBURGH, PA",44.8,0,0,0,0,Residential,Banksville,2,20,5,20,6,4-9,-80.04400318495854,40.407351340024746
1978674,0017M00155000000,1111 CRANE AVE,"PITTSBURGH, PA",2049.71,0,0,0,0,Residential,Banksville,2,20,5,20,6,4-9,-80.03485319625796,40.41676870722674
1978675,0036N00114000000,2458 ALLENDER AVE,"PITTSBURGH, PA",417.86,0,0,0,0,Residential,Banksville,2,20,5,20,6,4-9,-80.04700939599088,40.40461331355288
1978676,0036J00330000000,226 ORIOLE DR,"PITTSBURGH, PA",898.12,0,0,0,0,Residential,Banksville,2,20,5,20,6,4-9,-80.04625338613178,40.408627400012826
1978677,0017M00190000000,1111 CRANE AVE,"PITTSBURGH, PA",657.58,0,0,0,0,Residential,Banksville,2,20,5,20,6,4-9,-80.03426221996601,40.4164382492855
1978678,0017M00210000000,139 BANKSVILLE PL,"PITTSBURGH, PA",2433.97,0,0,0,0,Residential,Banksville,2,20,5,20,6,4-9,-80.03367757295987,40.41709459961529
1978679,0036K00100000000,2350 ROSEGARDEN RD,"PITTSBURGH, PA",2058.48,0,0,0,0,Residential,Banksville,2,20,5,20,6,4-9,-80.04259082050483,40.407575857945375
1978680,0017M00212000000,147 BANKSVILLE PL,"PITTSBURGH, PA",2388.23,0,0,0,0,Residential,Banksville,2,20,5,20,6,4-9,-80.0334747149694,40.4170792335036
1978681,0036D00110000000,ROSEBERRY ST,"CARNEGIE, PA",310.69,0,0,0,0,Residential,Banksville,2,20,5,20,6,4-9,-80.03323024027962,40.41251345973221
1978682,0036R00086000000,2854 BANKSVILLE RD,"HOUSTON, TX",10780.33,0,0,0,0,Commercial,Banksville,2,20,5,20,6,4-9,-80.03955771900438,40.40475490730074
1978683,0063A00340000000,2338 OAK MANOR DR,"PITTSBURGH, PA",776.93,0,0,0,0,Residential,Banksville,2,20,5,20,6,4-9,-80.04567286974545,40.40220374740804
1978684,0063C00233000000,2823 STRACHAN AVE,"PITTSBURGH, PA",1240.82,0,0,0,0,Residential,Banksville,2,20,5,20,6,4-9,-80.03936452791741,40.401891302380726
1978685,0025S00061000000,2941 LEANDER ST,"PITTSBURGH, PA",981.6,0,0,0,0,Residential,Bedford Dwellings,7,6,3,6,2,2-24,-79.96723886672896,40.454800210624526
1978686,0025S00208000000,2827 BEDFORD AVE,"HARRISBURG, PA",5946.72,0,0,0,0,Commercial,Bedford Dwellings,6,5,3,5,2,2-5,-79.96850179258799,40.453302457468695
1978687,0010C00079000000,2616 BEDFORD AVE,"PITTSBURGH, PA",1057.84,0,0,0,0,Residential,Bedford Dwellings,6,5,3,5,2,2-5,-79.97079332852451,40.45117647728217
1978688,0010D00167000A00,2711 WEBSTER AVE,"PITTSBURGH, PA",143.61,0,0,0,0,Residential,Bedford Dwellings,6,5,3,5,2,2-5,-79.96949823336118,40.45108487630857
1978689,0010D00168000000,WEBSTER AVE,"PITTSBURGH, PA",28.6,0,0,0,0,Residential,Bedford Dwellings,6,5,3,5,2,2-5,-79.96958330857673,40.45104734203999
1978690,0010D00167000000,WEBSTER AVE,"PITTSBURGH, PA",28.6,0,0,0,0,Residential,Bedford Dwellings,6,5,3,5,2,2-5,-79.96954194807006,40.451064828638046
1978691,0025S00158000000,2827 BEDFORD AVE,"HARRISBURG, PA",121.99,0,0,0,0,Commercial,Bedford Dwellings,6,5,3,5,2,2-5,-79.96802296733297,40.45370276248875
1978692,0025S00155000000,2827 BEDFORD AVE,"HARRISBURG, PA",118.19,0,0,0,0,Commercial,Bedford Dwellings,6,5,3,5,2,2-5,-79.96781975818787,40.4537841951768
1978693,0010D00173000000,705 FRANCIS ST,"PITTSBURGH, PA",233.04,0,0,0,0,Residential,Bedford Dwellings,6,5,3,5,2,2-5,-79.97023384554282,40.45109443122969
1978694,0010C00011000000,717 WATT LN,"PITTSBURGH, PA",726.2,0,0,0,0,Residential,Bedford Dwellings,6,5,3,5,2,2-5,-79.97219069227751,40.450470772912695
1978695,0010G00268000000,2525 WEBSTER AVE,"PITTSBURGH, PA",729.11,0,0,0,0,Residential,Bedford Dwellings,6,5,3,5,2,2-5,-79.97171773494233,40.45016011052672
1978696,0025S00176000000,2910 WHITE ST,"PITTSBURGH, PA",47.58,0,0,0,0,Residential,Bedford Dwellings,6,5,3,5,2,2-5,-79.96780071477905,40.45333528253694
1978697,0010G00270000000,706 WATT LN,"PITTSBURGH, PA",100,0,0,0,0,Residential,Bedford Dwellings,6,5,3,5,2,2-5,-79.97185895952688,40.45027271428189
1978698,0010C00007000000,BEDFORD AVE,"PITTSBURGH, PA",26.68,0,0,0,0,Residential,Bedford Dwellings,6,5,3,5,2,2-5,-79.97233384194817,40.4505362180454
1978699,0025S00156000000,2827 BEDFORD AVE,"HARRISBURG, PA",118.18,0,0,0,0,Commercial,Bedford Dwellings,6,5,3,5,2,2-5,-79.96790226532627,40.45375231698702
1978700,0025S00154000000,WHITE ST,"HARRISBURG, PA",118.17,0,0,0,0,Commercial,Bedford Dwellings,6,5,3,5,2,2-5,-79.96773894336496,40.45381479644025
1978701,0035E00062000000,1550 NAPOLEON ST,"PITTSBURGH, PA",169.25,0,0,0,0,Residential,Beechview,4,19,5,19,6,4-28,-80.0295342067063,40.410775071509775
1978702,0035A00129000000,1459 BANKSVILLE RD,"PITTSBURGH, PA",4235.13,0,0,0,0,Commercial,Beechview,4,19,5,19,6,4-9,-80.03008762411228,40.413176568578095
1978703,0016P00010000000,ALVERADO AVE,"PITTSBURGH, PA",114.36,0,0,0,0,Residential,Beechview,4,19,5,19,6,4-28,-80.02828348104946,40.4144359439816
1978704,0035L00151000000,1719 DAGMAR AVE,"PITTSBURGH, PA",1122.65,0,0,0,0,Residential,Beechview,4,19,5,19,6,4-28,-80.02242285682206,40.40804902832948
1978705,0035R00297000000,1857 KIRALFY AVE,"PITTSBURGH, PA",824.15,0,0,0,0,Residential,Beechview,4,19,5,19,6,4-28,-80.02131132803373,40.4058839648704
1978706,0035C00179000000,1339 KENBERMA AVE,"PITTSBURGH, PA",1444.75,0,0,0,0,Residential,Beechview,4,19,5,19,6,4-28,-80.02175297885145,40.413214596787945
1978707,0062E00150000000,2637 MACKINAW AVE,"CRANBERRY TWP, PA",31.59,0,0,0,0,Residential,Beechview,4,19,5,19,6,4-28,-80.02870610991766,40.400094937779336
1978708,0035C00044000000,1427 FALLOWFIELD AVE,"IRVING, TX",1334.2,0,0,0,0,Residential,Beechview,4,19,5,19,6,4-28,-80.02362409001603,40.41317378760979
1978709,0035K00253000000,1726 REALTY AVE,"PITTSBURGH, PA",861.54,0,0,0,0,Residential,Beechview,4,19,5,19,6,4-28,-80.02477427954574,40.40784839913769
1978710,0062J00044000000,32 WENZELL PL,"PITTSBURGH, PA",602.29,0,0,0,0,Residential,Beechview,4,19,5,19,6,4-28,-80.03053439740019,40.39887812324881
1978711,0035F00104000000,1537 BELASCO AVE,"PITTSBURGH, PA",953.02,0,0,0,0,Residential,Beechview,4,19,5,19,6,4-28,-80.02719273947292,40.41073372501449
1978712,0035C00065000000,1533 FALLOWFIELD AVE,"EAST LANSING, MI",1012.1,0,0,0,0,Residential,Beechview,4,19,5,19,6,4-28,-80.02351755450978,40.41160555859409
1978713,0035D00129000000,ORANGEWOOD AVE,"PITTSBURGH, PA",383.12,0,0,0,0,Residential,Beechview,4,19,5,19,6,4-28,-80.01808777331625,40.41194245259338
1978714,0016P00279000000,1331 BEECHVIEW AVE,"PITTSBURGH, PA",1368.52,0,0,0,0,Residential,Beechview,4,19,5,19,6,4-28,-80.02467529454486,40.41488416749891
1978715,0035A00080000000,NAPOLEON ST,"PITTSBURGH, PA",114.36,0,0,0,0,Residential,Beechview,4,19,5,19,6,4-28,-80.02956968519835,40.41143651385468
1978716,0062A00148000000,2219 BROADWAY AVE,"PITTSBURGH, PA",444.73,0,0,0,0,Residential,Beechview,4,19,5,19,6,4-28,-80.03025695841164,40.40334387105116
1978717,0035A00105000000,1459 BANKSVILLE RD,"PITTSBURGH, PA",127.71,0,0,0,0,Commercial,Beechview,4,19,5,19,6,4-28,-80.02964607645208,40.41311915579482
1978718,0035R00166000000,1843 FALLOWFIELD AVE,"PITTSBURGH, PA",585.91,0,0,0,0,Residential,Beechview,4,19,5,19,6,4-28,-80.02327027338738,40.406219409016565
1978719,0035P00280000000,2137 PALM BEACH AVE,"PITTSBURGH, PA",1393.3,0,0,0,0,Residential,Beechview,4,19,5,19,6,4-28,-80.02723063527074,40.40486897827402
1978720,0035H00046000000,1533 WESTFIELD ST,"IRVING, TX",1515.28,0,0,0,0,Residential,Beechview,4,19,5,19,6,4-28,-80.01894935848645,40.411219205498064
1978721,0035P00314000000,2127 VODELI ST,"PITTSBURGH, PA",717.41,0,0,0,0,Residential,Beechview,4,19,5,19,6,4-28,-80.02785621820026,40.40415316969236
1978722,0035C00058000000,1519 FALLOWFIELD AVE,"PITTSBURGH, PA",2502.59,0,0,0,0,Residential,Beechview,4,19,5,19,6,4-28,-80.02355341469917,40.41218154218374
1978723,0035D00140000000,1403 ORANGEWOOD AVE,"PITTSBURGH, PA",1740.19,0,0,0,0,Residential,Beechview,4,19,5,19,6,4-28,-80.01813087324443,40.41296445132895
1978724,0016P00235000000,1304 BEECHVIEW AVE,"NEDERLAND, TX",1040.68,0,0,0,0,Residential,Beechview,4,19,5,19,6,4-28,-80.02527511752345,40.416052602259214
1978725,0062F00031000000,2629 MACKINAW AVE,"PITTSBURGH, PA",1530.53,0,0,0,0,Residential,Beechview,4,19,5,19,6,4-28,-80.02842893054931,40.40008284057964
1978726,0035D00068000000,1513 WESTFIELD ST,"PITTSBURGH, PA",184.89,0,0,0,0,Residential,Beechview,4,19,5,19,6,4-28,-80.01897923834966,40.41169929751168
1978727,0035E00028000000,1611 NAPOLEON ST,"PITTSBURGH, PA",639.12,0,0,0,0,Residential,Beechview,4,19,5,19,6,4-28,-80.02894363616257,40.40991640333091
1978728,0035L00079000000,1805 FALLOWFIELD AVE,"CANONSBURG, PA",1172.2,0,0,0,0,Residential,Beechview,4,19,5,19,6,4-28,-80.02326877752361,40.40729789047848
1978729,0062B00068000000,2204 SARANAC AVE,"PITTSBURGH, PA",350.78,0,0,0,0,Residential,Beechview,4,19,5,19,6,4-28,-80.02743025491057,40.40367030158608
1978730,0016R00006000000,1402 FALLOWFIELD AVE,"PITTSBURGH, PA",353.37,0,0,0,0,Residential,Beechview,4,19,5,19,6,4-28,-80.02422485911205,40.41417791080089
1978731,0035C00274000000,1424 ROCKLAND AVE,"PITTSBURGH, PA",797.46,0,0,0,0,Residential,Beechview,4,19,5,19,6,4-28,-80.02044843442138,40.41245173636578
1978732,0036S00262000000,626 WENZELL AVE,"PITTSBURGH, PA",731.9,0,0,0,0,Residential,Beechview,2,20,5,20,6,4-28,-80.03317950887433,40.40462034961286
1978733,0035N00253000000,2732 SHIRAS AVE,"PITTSBURGH, PA",1095.96,0,0,0,0,Residential,Beechview,4,19,5,19,6,4-28,-80.03099470474505,40.40419204494224
1978734,0035H00243000000,1679 SUBURBAN AVE,"PITTSBURGH, PA",1296.1,0,0,0,0,Residential,Beechview,4,19,5,19,6,4-28,-80.0198061378097,40.409732706767294
1978735,0036S00194000000,707 WENZELL AVE,"PITTSBURGH, PA",261.77,0,0,0,0,Residential,Beechview,2,20,5,20,6,4-28,-80.03386967155508,40.40525800445409
1978736,0062F00114000000,2370 SARANAC AVE,"RAPID CITY, SD",1315.16,0,0,0,0,Residential,Beechview,4,19,5,19,6,4-28,-80.02729626759827,40.4006874167378
1978737,0062E00101000000,2375 BENSONIA AVE,"DES MOINES, IA",1509.55,0,0,0,0,Residential,Beechview,4,19,5,19,6,4-28,-80.02958276763198,40.40047878525174
1978738,0035K00005000000,1926 BROADWAY AVE,"VERONA, PA",2725.6,0,0,0,0,Residential,Beechview,4,20,5,20,6,4-28,-80.0281486443197,40.4068318111454
1978739,0035G00012000000,1621 BROADWAY AVE,"PITTSBURGH, PA",2077.54,0,0,0,0,Residential,Beechview,4,19,5,19,6,4-28,-80.02433016246275,40.4097382165309
1978740,0035K00232000000,1838 TONOPAH AVE,"PITTSBURGH, PA",1307.52,0,0,0,0,Residential,Beechview,4,19,5,19,6,4-28,-80.02633052222609,40.40682853024003
1978741,0035B00039000000,1416 BELASCO AVE,"OKLAHOMA CITY, OK",566.82,0,0,0,0,Residential,Beechview,4,19,5,19,6,4-28,-80.02786965913246,40.413490423340725
1978742,0016B00092000000,914 SHADYCREST RD,"PITTSBURGH, PA",1131,0,0,0,0,Residential,Beechview,4,19,5,19,6,4-28,-80.02617299955945,40.421380910979885
1978743,0016K00186000000,1120 TROPICAL AVE,"IRVING, TX",1190.09,0,0,0,0,Residential,Beechview,4,19,5,19,6,4-28,-80.02555280214942,40.417737337876254
1978744,0016P00009000000,ALVERADO AVE,"PITTSBURGH, PA",114.36,0,0,0,0,Residential,Beechview,4,19,5,19,6,4-28,-80.02827986365462,40.41435969426629
1978745,0035D00131000000,TIONESTA AVE,"PITTSBURGH, PA",114.36,0,0,0,0,Residential,Beechview,4,19,5,19,6,4-28,-80.01809667295856,40.41210000942393
1978746,0035F00165000000,1553 RUTHERFORD AVE,"PITTSBURGH, PA",1183.64,0,0,0,0,Residential,Beechview,4,19,5,19,6,4-28,-80.02628328229859,40.410638115742394
1978747,0062J00041000000,24 WENZELL PL,"PITTSBURGH, PA",602.29,0,0,0,0,Residential,Beechview,4,19,5,19,6,4-28,-80.03067646601006,40.39905190165435
1978748,0015N00038000000,94 DAWN AVE,"PITTSBURGH, PA",1143.6,0,0,0,0,Residential,Beechview,2,19,5,19,6,4-28,-80.01432575223494,40.41413425009984
1978749,0062A00015000000,2312 CANDACE ST,"PITTSBURGH, PA",677.37,0,0,0,0,Residential,Beechview,4,19,5,19,6,4-28,-80.03229340380979,40.4021741088808
1978750,0062J00002000000,2515 WENZELL AVE,"PITTSBURGH, PA",1320.86,0,0,0,0,Residential,Beechview,4,19,5,19,6,4-28,-80.02883123070735,40.399259393421865
1978751,0062F00156000000,2379 SARANAC AVE,"PITTSBURGH, PA",1229.38,0,0,0,0,Residential,Beechview,4,19,5,19,6,4-28,-80.02673270681235,40.40051695764998
1978752,0005P00075000000,717 SHADYCREST RD,"PITTSBURGH, PA",444.86,0,0,0,0,Residential,Beechview,4,20,5,20,6,4-28,-80.02622264848449,40.42521722736814
1978753,0035C00202000000,1516 ALTON ST,"WESTLAKE, TX",1048.3,0,0,0,0,Residential,Beechview,4,19,5,19,6,4-28,-80.02128296276558,40.41152050285795
1978754,0035B00207000000,1511 METHYL ST,"PITTSBURGH, PA",850.08,0,0,0,0,Residential,Beechview,4,19,5,19,6,4-28,-80.02549556577476,40.41245882457728
1978755,0016P00237000000,1306 BEECHVIEW AVE,"NEDERLAND, TX",1240.81,0,0,0,0,Residential,Beechview,4,19,5,19,6,4-28,-80.0253061015142,40.41596956454495
1978756,0062B00152000000,2312 PALM BEACH AVE,"PITTSBURGH, PA",1662.04,0,0,0,0,Residential,Beechview,4,19,5,19,6,4-28,-80.02641838539614,40.40232711375733
1978757,0062K00050000000,2443 VODELI ST,"PITTSBURGH, PA",695.7,0,0,0,0,Residential,Beechview,4,19,5,19,6,4-28,-80.02744673113436,40.39915320683392
1978758,0035B00002000000,1529 ALVERADO AVE,"PITTSBURGH, PA",1433.31,0,0,0,0,Residential,Beechview,4,19,5,19,6,4-28,-80.02813235846139,40.41148377529745
1978759,0035K00252000000,1728 REALTY AVE,"WASHINGTON, PA",421.98,0,0,0,0,Residential,Beechview,4,19,5,19,6,4-28,-80.02481818897468,40.407747249770175
1978760,0035L00059000000,1802 FALLOWFIELD AVE,"IRVING, TX",593.51,0,0,0,0,Residential,Beechview,4,19,5,19,6,4-28,-80.02386533890528,40.407363351713805
1978761,0034A00151000000,132 SEBRING AVE,"PITTSBURGH, PA",185.02,0,0,0,0,Residential,Beechview,2,19,5,19,6,4-28,-80.01271518820643,40.41239429922744
1978762,0062J00057000000,60 WENZELL PL,"IRVING, TX",973.97,0,0,0,0,Residential,Beechview,4,19,5,19,6,4-28,-80.0296966772667,40.39817660619192
1978763,0035H00080000000,1543 ORANGEWOOD AVE,"PITTSBURGH, PA",1153.14,0,0,0,0,Residential,Beechview,4,19,5,19,6,4-28,-80.01802522501008,40.4109147917623
1978764,0035M00044000000,1719 RINGWALT ST,"PITTSBURGH, PA",403.05,0,0,0,0,Residential,Beechview,4,19,5,19,6,4-28,-80.01966529304326,40.407806417091415
1978765,0035H00283000000,WEST LIBERTY AVE,"PITTSBURGH, PA",131.52,0,0,0,0,Commercial,Beechview,2,19,5,19,6,4-28,-80.01642606744895,40.41018305171137
1978766,0035K00111000000,1810 BROADWAY AVE,"WASHINGTON, PA",1696.34,0,0,0,0,Residential,Beechview,4,19,5,19,6,4-28,-80.02669100165677,40.40755996164843
1978767,0035B00106000000,1418 RUTHERFORD AVE,"PITTSBURGH, PA",423.88,0,0,0,0,Residential,Beechview,4,19,5,19,6,4-28,-80.02732416801129,40.413450957253815
1978768,0062F00228000000,2345 PALM BEACH AVE,"PITTSBURGH, PA",254.25,0,0,0,0,Residential,Beechview,4,19,5,19,6,4-28,-80.02583079209924,40.401306417803305
1978769,0035R00001000000,1835 REALTY AVE,"PITTSBURGH, PA",27.34,0,0,0,0,Residential,Beechview,4,19,5,19,6,4-28,-80.02426380310979,40.40652958065769
1978770,0016P00196000000,1406 METHYL ST,"CANONSBURG, PA",920.61,0,0,0,0,Residential,Beechview,4,19,5,19,6,4-28,-80.02609827419411,40.41394881985824
1978771,0035G00243000000,337 CAPE MAY AVE,"PITTSBURGH, PA",547.77,0,0,0,0,Residential,Beechview,4,19,5,19,6,4-28,-80.02162865933387,40.41019627780295
1978772,0035C00203000000,1514 ALTON ST,"LONG BRANCH, NJ",1242.71,0,0,0,0,Residential,Beechview,4,19,5,19,6,4-28,-80.0212909202433,40.41160160258831
1978773,0005P00095000000,714 SHADYCREST CT,"PITTSBURGH, PA",334.29,0,0,0,0,Residential,Beechview,4,20,5,20,6,4-28,-80.02614703042217,40.42449767381177
1978774,0035N00156000000,BROADWAY AVE,"PITTSBURGH, PA",30.5,0,0,0,0,Commercial,Beechview,4,20,5,20,6,4-28,-80.02971783331557,40.406030058649314
1978775,0062J00056000000,58 WENZELL PL,"EIGHTY FOUR, PA",960.64,0,0,0,0,Residential,Beechview,4,19,5,19,6,4-28,-80.0298254845274,40.39812647892842
1978776,0035N00155000000,BOUSTEAD ST,"PITTSBURGH, PA",30.5,0,0,0,0,Commercial,Beechview,4,20,5,20,6,4-28,-80.02980596201651,40.405983533230696
1978777,0005P00138000000,1104 SHADYCREST DR,"HERMITAGE, PA",1021.61,0,0,0,0,Residential,Beechview,4,20,5,20,6,4-28,-80.02550004252441,40.42367889027112
1978778,0016C00001000000,907 TROPICAL AVE,"PITTSBURGH, PA",559.31,0,0,0,0,Residential,Beechview,4,19,5,19,6,4-28,-80.02437446143054,40.4212945388206
1978779,0035D00110000000,1422 ORANGEWOOD AVE,"PITTSBURGH, PA",2273.87,0,0,0,0,Residential,Beechview,4,19,5,19,6,4-28,-80.01866279175894,40.41250563341482
1978780,0062A00251000000,2214 LOS ANGELES AVE,"PITTSBURGH, PA",134.09,0,0,0,0,Residential,Beechview,4,19,5,19,6,4-28,-80.02932855969689,40.40332525467174
1978781,0034E00061000000,1430 WEST LIBERTY AVE,"PITTSBURGH, PA",726.2,0,0,0,0,Residential,Beechview,2,19,5,19,6,4-28,-80.01445619896886,40.411148707312
1978782,0062J00048000000,42 WENZELL PL,"DES MOINES, IA",964.44,0,0,0,0,Residential,Beechview,4,19,5,19,6,4-28,-80.03033359964483,40.39864457714737
1978783,0016F00130000000,113 SHADYVIEW PL,"PITTSBURGH, PA",1550.32,0,0,0,0,Residential,Beechview,2,20,5,20,6,4-28,-80.02715361312238,40.420356173735776
1978784,0035K00114000000,BROADWAY AVE,"PITTSBURGH, PA",28.6,0,0,0,0,Commercial,Beechview,4,19,5,19,6,4-28,-80.02641158248414,40.40769709986365
1978785,0062B00113000000,2217 SARANAC AVE,"IRVING, TX",23.41,0,0,0,0,Residential,Beechview,4,19,5,19,6,4-28,-80.02684902242969,40.403271250167165
1978786,0062J00043000000,30 WENZELL PL,"PITTSBURGH, PA",602.3,0,0,0,0,Residential,Beechview,4,19,5,19,6,4-28,-80.0305790318267,40.3989379625498
1978787,0016G00025000000,961 GLADYS AVE,"WESTLAKE, TX",3315.28,0,0,0,0,Residential,Beechview,4,19,5,19,6,4-28,-80.02355453589887,40.419290366675455
1978788,0035H00254000000,130 CAPE MAY AVE,"PITTSBURGH, PA",1972.72,0,0,0,0,Residential,Beechview,2,19,5,19,6,4-28,-80.01888989020746,40.40910662529388
1978789,0035J00018000000,809 HILLGROVE AVE,"PITTSBURGH, PA",326.69,0,0,0,0,Residential,Beechview,2,20,5,20,6,4-9,-80.03254915163969,40.4070385589432
1978790,0016S00088000000,1306 ORANGEWOOD AVE,"PITTSBURGH, PA",820.33,0,0,0,0,Residential,Beechview,4,19,5,19,6,4-28,-80.01872258092082,40.41393145555932
1978791,0016B00040000000,869 SHADYCREST RD,"IRVING, TX",1534.34,0,0,0,0,Residential,Beechview,4,19,5,19,6,4-28,-80.0252989432391,40.421624658779685
1978792,0035F00240000000,METHYL ST,"PITTSBURGH, PA",114.36,0,0,0,0,Residential,Beechview,4,19,5,19,6,4-28,-80.02532874702305,40.409610867643686
1978793,0035C00007000000,1528 FALLOWFIELD AVE,"PITTSBURGH, PA",202.64,0,0,0,0,Residential,Beechview,4,19,5,19,6,4-28,-80.02409355023315,40.41174733350053
1978794,0062B00109000000,2231 SARANAC AVE,"PITTSBURGH, PA",900.39,0,0,0,0,Residential,Beechview,4,19,5,19,6,4-28,-80.02683348201853,40.40294098542452
1978795,0016L00016000000,1102 GLADYS AVE,"PITTSBURGH, PA",753.51,0,0,0,0,Residential,Beechview,4,19,5,19,6,4-28,-80.02441966194598,40.417962543394154
1978796,0062B00138000000,2222 PALM BEACH AVE,"PITTSBURGH, PA",1071.18,0,0,0,0,Residential,Beechview,4,19,5,19,6,4-28,-80.02645123786189,40.40319745748312
1978797,0062C00069000000,2011 TEXDALE ST,"PITTSBURGH, PA",1080.71,0,0,0,0,Residential,Beechview,4,19,5,19,6,4-28,-80.02105363307889,40.40345770503343
1978798,0035L00056000000,1733 TONOPAH AVE,"IRVING, TX",41.95,0,0,0,0,Residential,Beechview,4,19,5,19,6,4-28,-80.02404827630502,40.40745727128357
1978799,0062J00028000000,45 WENZELL PL,"PITTSBURGH, PA",127.32,0,0,0,0,Residential,Beechview,4,19,5,19,6,4-28,-80.02982310395558,40.39881634534471
1978800,0016P00058000000,1342 BELASCO AVE,"PITTSBURGH, PA",1284.64,0,0,0,0,Residential,Beechview,4,19,5,19,6,4-28,-80.02792401736055,40.41437479614532
1978801,0062J00042000000,28 WENZELL PL,"PITTSBURGH, PA",602.3,0,0,0,0,Residential,Beechview,4,19,5,19,6,4-28,-80.03062858621009,40.398994510468015
1978802,0035L00005000000,1823 REALTY AVE,"PITTSBURGH, PA",384.15,0,0,0,0,Residential,Beechview,4,19,5,19,6,4-28,-80.02427137228403,40.40686718481064
1978803,0035E00064000000,NAPOLEON ST,"PITTSBURGH, PA",101.66,0,0,0,0,Residential,Beechview,4,19,5,19,6,4-28,-80.02954654086045,40.41093728990857
1978804,0035H00242000000,1681 SUBURBAN AVE,"PITTSBURGH, PA",1237.01,0,0,0,0,Residential,Beechview,4,19,5,19,6,4-28,-80.01988243332968,40.40978699514678
1978805,0034A00010000000,84 DAWN AVE,"BALA CYNWYD, PA",2077.56,0,0,0,0,Commercial,Beechview,2,19,5,19,6,4-28,-80.01362013854515,40.413869769175285
1978806,0035F00250000000,1648 BROADWAY AVE,"PITTSBURGH, PA",2153.78,0,0,0,0,Commercial,Beechview,4,19,5,19,6,4-28,-80.02496026441419,40.40913264707808
1978807,0035C00106000000,1410 KENBERMA AVE,"IRVING, TX",936.61,0,0,0,0,Residential,Beechview,4,19,5,19,6,4-28,-80.02235022523385,40.41387131946043
1978808,0005K00202000000,1244 SHADYCREST DR,"PITTSBURGH, PA",1004.48,0,0,0,0,Residential,Beechview,4,20,5,20,6,4-28,-80.02670573442737,40.42616031131776
1978809,0035E00093000000,CANTON AVE,"HUNKER, PA",19.06,0,0,0,0,Residential,Beechview,4,19,5,19,6,4-28,-80.02983629721938,40.40964579212792
1978810,0035L00244000000,FAIRACRES AVE,"PITTSBURGH, PA",24.79,0,0,0,0,Residential,Beechview,4,19,5,19,6,4-28,-80.02109816306486,40.407669295043775
1978811,0063D00074000000,2606 CONNECTICUT AVE,"PITTSBURGH, PA",265.69,0,0,0,0,Residential,Beechview,2,20,5,20,6,4-28,-80.03408017724138,40.40196137407967
1978812,0035R00120000000,1901 FALLOWFIELD AVE,"PITTSBURGH, PA",959.83,0,0,0,0,Commercial,Beechview,4,19,5,19,6,4-28,-80.0226869594858,40.40460875465222
1978813,0035D00006000000,1507 ROCKLAND AVE,"WEST HOMESTEAD, PA",30.03,0,0,0,0,Residential,Beechview,4,19,5,19,6,4-28,-80.01988003370828,40.411893828456606
1978814,0035G00059000000,1626 FALLOWFIELD AVE,"PITTSBURGH, PA",922.5,0,0,0,0,Residential,Beechview,4,19,5,19,6,4-28,-80.02397095536625,40.40983054156271
1978815,0035J00331000000,1942 BROADWAY AVE,"PITTSBURGH, PA",28.32,0,0,0,0,Residential,Beechview,4,20,5,20,6,4-28,-80.0286403533059,40.40658642647006
1978816,0035M00105000000,109 LONGMORE AVE,"IRVING, TX",961.38,0,0,0,0,Residential,Beechview,4,19,5,19,6,4-28,-80.01932512654611,40.40810264382433
1978817,0016P00116000000,1328 RUTHERFORD AVE,"PITTSBURGH, PA",1185.53,0,0,0,0,Residential,Beechview,4,19,5,19,6,4-28,-80.02705200868337,40.41498145033738
1978818,0035M00055000000,1806 RINGWALT ST,"PITTSBURGH, PA",635.45,0,0,0,0,Residential,Beechview,4,19,5,19,6,4-28,-80.0197980215235,40.40720029654132
1978819,0016P00052000000,1332 BELASCO AVE,"NEDERLAND, TX",960.62,0,0,0,0,Residential,Beechview,4,19,5,19,6,4-28,-80.02794819200935,40.41486570769451
1978820,0035P00065000000,1904 BELASCO AVE,"BROOKLYN, NY",2151.89,0,0,0,0,Commercial,Beechview,4,19,5,19,6,4-28,-80.02646040183862,40.40622557791925
1978821,0035B00103000000,1412 RUTHERFORD AVE,"PITTSBURGH, PA",956.81,0,0,0,0,Residential,Beechview,4,19,5,19,6,4-28,-80.02697997617399,40.41369680263576
1978822,0035D00066000000,1519 WESTFIELD ST,"PITTSBURGH, PA",604.94,0,0,0,0,Residential,Beechview,4,19,5,19,6,4-28,-80.0189689682821,40.411536307322606
1978823,0034A00252000000,241 TRAYMORE AVE,"PITTSBURGH, PA",92.51,0,0,0,0,Residential,Beechview,4,19,5,19,6,4-28,-80.01477553144932,40.41178045066832
1978824,0016L00084000000,1200 DAGMAR AVE,"PITTSBURGH, PA",1153.89,0,0,0,0,Residential,Beechview,4,19,5,19,6,4-28,-80.02346779579443,40.41678186753034
1978825,0016P00208000000,1341 METHYL ST,"DES MOINES, IA",1419.98,0,0,0,0,Residential,Beechview,4,19,5,19,6,4-28,-80.02558507318861,40.41452984670843
1978826,0035H00099000000,1538 PRINCESS AVE,"PITTSBURGH, PA",3902.55,0,0,0,0,Residential,Beechview,4,19,5,19,6,4-28,-80.01767217884958,40.411009308330975
1978827,0062E00240000000,2402 WENZELL AVE,"PITTSBURGH, PA",419.32,0,0,0,0,Residential,Beechview,4,19,5,19,6,4-28,-80.03082571800185,40.39984886942992
1978828,0016R00054000000,805 BAYONNE AVE,"PITTSBURGH, PA",2601.7,0,0,0,0,Commercial,Beechview,4,19,5,19,6,4-28,-80.0236876557951,40.41451031973444
1978829,0016F00108000000,207 SHADYGROVE AVE,"PITTSBURGH, PA",31.96,0,0,0,0,Residential,Beechview,4,19,5,19,6,4-28,-80.02574041145934,40.42055421253514
1978830,0016J00068000000,BANKSVILLE RD,"CORAOPOLIS, PA",1531.08,0,0,0,0,Commercial,Beechview,2,20,5,20,6,4-28,-80.02927333019761,40.41868961832033
1978831,0062J00040000000,22 WENZELL PL,"PITTSBURGH, PA",958.73,0,0,0,0,Residential,Beechview,4,19,5,19,6,4-28,-80.03072419758112,40.39911110393431
1978832,0016P00115000000,RUTHERFORD AVE,"PITTSBURGH, PA",114.36,0,0,0,0,Residential,Beechview,4,19,5,19,6,4-28,-80.02705781340174,40.41506496042741
1978833,0005P00152000000,1145 SHADYCREST DR,"IRVING, TX",1036.89,0,0,0,0,Residential,Beechview,4,20,5,20,6,4-28,-80.02703866040501,40.4239966051226
1978834,0016J00070000000,1201 BANKSVILLE RD,"CORAOPOLIS, PA",23.19,0,0,0,0,Commercial,Beechview,2,20,5,20,6,4-28,-80.02929129163894,40.418337273126795
1978835,0035C00060000000,1523 FALLOWFIELD AVE,"PITTSBURGH, PA",592.39,0,0,0,0,Residential,Beechview,4,19,5,19,6,4-28,-80.02354151349569,40.412014658529806
1978836,0016S00122000000,1295 ORANGEWOOD AVE,"PITTSBURGH, PA",19.2,0,0,0,0,Residential,Beechview,4,19,5,19,6,4-28,-80.01821822258769,40.4144334724189
1978837,0035H00214000000,SUBURBAN AVE,"PITTSBURGH, PA",19.06,0,0,0,0,Residential,Beechview,2,19,5,19,6,4-28,-80.0182768281672,40.4093250101651
1978838,0035E00096000000,1623 CANTON AVE,"HUNKER, PA",562.28,0,0,0,0,Residential,Beechview,4,19,5,19,6,4-28,-80.0298283972562,40.409438843647166
1978839,0016P00012000000,1337 ALVERADO AVE,"PITTSBURGH, PA",531.78,0,0,0,0,Residential,Beechview,4,19,5,19,6,4-28,-80.02828040775123,40.41460728547073
1978840,0035G00162000000,1610 KIRALFY AVE,"PITTSBURGH, PA",1071.18,0,0,0,0,Residential,Beechview,4,19,5,19,6,4-28,-80.02208455431207,40.4093217488571
1978841,0035R00201000000,DAGMAR AVE,"CLEVELAND, OH",125.8,0,0,0,0,Residential,Beechview,4,19,5,19,6,4-28,-80.02227528094637,40.406094043022186
1978842,0016R00052000000,1359 FALLOWFIELD AVE,"PITTSBURGH, PA",597.32,0,0,0,0,Residential,Beechview,4,19,5,19,6,4-28,-80.02369674333373,40.4146754851532
1978843,0062A00129000000,2210 BROADWAY AVE,"PITTSBURGH, PA",600,0,0,0,0,Residential,Beechview,4,19,5,19,6,4-28,-80.03084274951385,40.40356798743976
1978844,0062A00247000000,2222 LOS ANGELES AVE,"BRIDGEVILLE, PA",905.36,0,0,0,0,Residential,Beechview,4,19,5,19,6,4-28,-80.02931200997993,40.4029543553016
1978845,0035K00141000000,1703 RUTHERFORD AVE,"PITTSBURGH, PA",640.44,0,0,0,0,Residential,Beechview,4,19,5,19,6,4-28,-80.02616167091898,40.40837163708987
1978846,0035D00128000000,ORANGEWOOD AVE,"PITTSBURGH, PA",114.36,0,0,0,0,Residential,Beechview,4,19,5,19,6,4-28,-80.01808259304438,40.411817205167374
1978847,0063D00009000000,2223 WENZELL AVE,"PITTSBURGH, PA",1529.37,0,0,0,0,Residential,Beechview,4,19,5,19,6,4-28,-80.03297874745304,40.40350145045426
1978848,0014E00073000000,513 FREELAND ST,"PITTSBURGH, PA",453.65,0,0,0,0,Residential,Beltzhoover,3,18,4,18,3,4-21,-79.99827983457402,40.41927074244595
1978849,0015H00288000000,238 E WARRINGTON AVE,"PITTSBURGH, PA",67.84,0,0,0,0,Residential,Beltzhoover,3,18,4,18,3,4-16,-80.00319748101488,40.42072773177045
1978850,0015H00016000000,320 FREELAND ST,"PITTSBURGH, PA",336.03,0,0,0,0,Residential,Beltzhoover,3,18,4,18,3,4-16,-80.00151019661227,40.418846978417925
1978851,0014A00370000000,524 E WARRINGTON AVE,"DETROIT, MI",276.38,0,0,0,0,Residential,Beltzhoover,3,18,4,18,3,4-21,-79.99806446551105,40.421344683725515
1978852,0015P00084000000,632 W WARRINGTON AVE,"PITTSBURGH, PA",1044.03,0,0,0,0,Commercial,Beltzhoover,3,18,4,18,3,4-16,-80.010702103383,40.4155923397004
1978853,0014J00294000000,514 CURTIN AVE,"PITTSBURGH, PA",217.31,0,0,0,0,Residential,Beltzhoover,3,18,4,18,3,4-21,-79.9990790238479,40.41781369440927
1978854,0015H00117000000,222 CLIMAX ST,"PITTSBURGH, PA",155.07,0,0,0,0,Residential,Beltzhoover,3,18,4,18,3,4-16,-80.00331910555337,40.41945070718615
1978855,0015H00079000A00,324 LOYAL WAY,"PITTSBURGH, PA",373.6,0,0,0,0,Residential,Beltzhoover,3,18,4,18,3,4-16,-80.00139730857661,40.41938449605075
1978856,0015L00271000000,521 DELMONT AVE,"NEDERLAND, TX",104.84,0,0,0,0,Residential,Beltzhoover,3,18,4,18,3,4-16,-80.00368687085079,40.41776937395223
1978857,0014N00103000000,435 MICHIGAN ST,"PITTSBURGH, PA",78.41,0,0,0,0,Residential,Beltzhoover,3,18,4,18,3,4-21,-79.99898392175261,40.41614069668677
1978858,0015H00242000000,205 HABERMAN AVE,"PITTSBURGH, PA",419.32,0,0,0,0,Residential,Beltzhoover,3,18,4,18,3,4-16,-80.00216721237697,40.42048048500413
1978859,0015H00263000000,232 INDUSTRY ST,"PITTSBURGH, PA",230.64,0,0,0,0,Residential,Beltzhoover,3,18,4,18,3,4-16,-80.00339840921248,40.42022625909497
1978860,0015H00329000000,400 E WARRINGTON AVE,"PITTSBURGH, PA",1714.14,0,0,0,0,Industrial,Beltzhoover,3,18,4,18,3,4-21,-80.0001770769678,40.42082133247752
1978861,0015H00129000000,302 CLIMAX ST,"PITTSBURGH, PA",571.82,0,0,0,0,Residential,Beltzhoover,3,18,4,18,3,4-16,-80.00218163350635,40.41969636953508
1978862,0015M00207000000,218 SYLVANIA AVE,"PITTSBURGH, PA",34.36,0,0,0,0,Residential,Beltzhoover,3,18,4,18,3,4-16,-80.00310085999382,40.41716441980624
1978863,0015H00268000000,242 INDUSTRY ST,"PITTSBURGH, PA",373.58,0,0,0,0,Residential,Beltzhoover,3,18,4,18,3,4-16,-80.00305751684711,40.420310313654326
1978864,0015L00167000000,602 DELMONT AVE,"PITTSBURGH, PA",70.53,0,0,0,0,Residential,Beltzhoover,3,18,4,18,3,4-16,-80.00420545119358,40.41710577498363
1978865,0015M00306000000,232 CHALFONT ST,"PITTSBURGH, PA",314.5,0,0,0,0,Residential,Beltzhoover,3,18,4,18,3,4-16,-80.00270887017646,40.41640678495526
1978866,0015K00182000000,21 LAFFERTY AVE,"AVONDALE, AZ",115.49,0,0,0,0,Residential,Beltzhoover,3,18,4,18,3,4-16,-80.00930923438315,40.417376977885056
1978867,0015M00236000000,305 CHALFONT ST,"PITTSBURGH, PA",497.48,0,0,0,0,Residential,Beltzhoover,3,18,4,18,3,4-16,-80.0020213642812,40.41684141700532
1978868,0015K00071000A00,BOGGSTON AVE,"PITTSBURGH, PA",74.34,0,0,0,0,Residential,Beltzhoover,3,18,4,18,3,4-16,-80.01029649400897,40.417635451963456
1978869,0015R00169000000,923 MONTOOTH ST,"PITTSBURGH, PA",285.9,0,0,0,0,Residential,Beltzhoover,3,18,4,18,3,4-16,-80.00552413905713,40.41419468003148
1978870,0015M00309000000,226 CHALFONT ST,"PITTSBURGH, PA",38.94,0,0,0,0,Residential,Beltzhoover,3,18,4,18,3,4-16,-80.00297256394394,40.41640338294118
1978871,0015L00112000000,66 SYLVANIA AVE,"PITTSBURGH, PA",505.1,0,0,0,0,Residential,Beltzhoover,3,18,4,18,3,4-16,-80.00708006004339,40.416657423169355
1978872,0015L00166000000,602 DELMONT AVE,"PITTSBURGH, PA",619.46,0,0,0,0,Residential,Beltzhoover,3,18,4,18,3,4-16,-80.00420771162122,40.41717455375919
1978873,0014J00260000000,CHALFONT ST,"PITTSBURGH, PA",19.06,0,0,0,0,Residential,Beltzhoover,3,18,4,18,3,4-21,-79.99867473189798,40.41647402580569
1978874,0015H00169000000,425 CLIMAX ST,"ELKRIDGE, MD",221.11,0,0,0,0,Residential,Beltzhoover,3,18,4,18,3,4-21,-79.99942664536185,40.42018870776906
1978875,0015S00114000000,837 ESTELLA AVE,"CLEVELAND, OH",115.42,0,0,0,0,Residential,Beltzhoover,3,18,4,18,3,4-21,-80.00003704057475,40.41459155379077
1978876,0015P00079000000,632 W WARRINGTON AVE,"PITTSBURGH, PA",257.32,0,0,0,0,Commercial,Beltzhoover,3,18,4,18,3,4-16,-80.01056810646192,40.41576966074679
1978877,0015L00178000000,GEARING AVE,"BENNINGTON, NE",19.06,0,0,0,0,Residential,Beltzhoover,3,18,4,18,3,4-16,-80.00463729231734,40.41723897146865
1978878,0014N00098000000,423 MICHIGAN ST,"PITTSBURGH, PA",152.48,0,0,0,0,Residential,Beltzhoover,3,18,4,18,3,4-21,-79.9994305091795,40.416128920521295
1978879,0033A00015000000,455 VANDALIA ST,"PITTSBURGH, PA",301.15,0,0,0,0,Residential,Beltzhoover,3,18,4,18,3,4-21,-79.99821028076595,40.41381419613514
1978880,0015S00034000000,331 MICHIGAN ST,"PITTSBURGH, PA",63.39,0,0,0,0,Residential,Beltzhoover,3,18,4,18,3,4-16,-80.00087682212704,40.41610549693471
1978881,0015H00141000000,LOYAL WAY,"EDINBURG, PA",78.16,0,0,0,0,Residential,Beltzhoover,3,18,4,18,3,4-16,-80.0012769472452,40.419711565891525
1978882,0015M00220000000,215 CHALFONT ST,"PITTSBURGH, PA",569.9,0,0,0,0,Residential,Beltzhoover,3,18,4,18,3,4-16,-80.00329316862819,40.41682102934764
1978883,0015L00069000000,94 LAFFERTY AVE,"PITTSBURGH, PA",533.68,0,0,0,0,Residential,Beltzhoover,3,18,4,18,3,4-16,-80.00626643382803,40.41784770563128
1978884,0014N00064000000,BERND ST,"PITTSBURGH, PA",97.22,0,0,0,0,Residential,Beltzhoover,3,18,4,18,3,4-21,-79.99895211718018,40.415362611814096
1978885,0015M00014000000,213 CEDARHURST ST,"ONTARIO, CA",623.28,0,0,0,0,Residential,Beltzhoover,3,18,4,18,3,4-16,-80.00328247303955,40.41838561672704
1978886,0014J00306000000,425 CEDARHURST ST,"PITTSBURGH, PA",288.55,0,0,0,0,Residential,Beltzhoover,3,18,4,18,3,4-21,-79.99942984617282,40.41853154600061
1978887,0014N00038000000,439 ALTHEA ST,"PITTSBURGH, PA",59.03,0,0,0,0,Residential,Beltzhoover,3,18,4,18,3,4-21,-79.99876794590625,40.41452374331192
1978888,0015R00261000000,713 GEARING AVE,"PITTSBURGH, PA",98.85,0,0,0,0,Residential,Beltzhoover,3,18,4,18,3,4-16,-80.00460025937447,40.41598673092928
1978889,0015H00021000000,FREELAND ST,"PITTSBURGH, PA",76.24,0,0,0,0,Residential,Beltzhoover,3,18,4,18,3,4-16,-80.00125568567195,40.41885074171721
1978890,0015L00197000000,617 MONTOOTH ST,"PITTSBURGH, PA",783.37,0,0,0,0,Residential,Beltzhoover,3,18,4,18,3,4-16,-80.0056149335148,40.416726538685324
1978891,0015L00275000000,507 DELMONT AVE,"PITTSBURGH, PA",339.53,0,0,0,0,Residential,Beltzhoover,3,18,4,18,3,4-16,-80.00369370712077,40.41801501003207
1978892,0015M00294000000,314 CHALFONT ST,"PITTSBURGH, PA",177.27,0,0,0,0,Residential,Beltzhoover,3,18,4,18,3,4-16,-80.0016257951966,40.416431742588
1978893,0034D00012000000,313 VANDALIA ST,"PITTSBURGH, PA",41.11,0,0,0,0,Residential,Beltzhoover,3,18,4,18,3,4-21,-80.00070761427625,40.41374130201624
1978894,0015H00304000000,304 E WARRINGTON AVE,"PITTSBURGH, PA",2317.71,0,0,0,0,Commercial,Beltzhoover,3,18,4,18,3,4-16,-80.00208916964179,40.420848736695504
1978895,0015G00039000000,166 W WARRINGTON AVE,"DETROIT, MI",421.24,0,0,0,0,Residential,Beltzhoover,3,18,4,18,3,4-16,-80.0055984746336,40.42049412986166
1978896,0014N00007000000,434 ALTHEA ST,"VALENCIA, PA",96.57,0,0,0,0,Residential,Beltzhoover,3,18,4,18,3,4-21,-79.99894658646717,40.41412954087548
1978897,0015L00269000000,523 DELMONT AVE,"PITTSBURGH, PA",512.72,0,0,0,0,Residential,Beltzhoover,3,18,4,18,3,4-16,-80.00367965424745,40.417597260888975
1978898,0014J00193000000,SYLVANIA AVE,"PITTSBURGH, PA",24.79,0,0,0,0,Residential,Beltzhoover,3,18,4,18,3,4-21,-79.99781689603374,40.417705966440685
1978899,0015R00168000000,925 MONTOOTH ST,"PITTSBURGH, PA",285.9,0,0,0,0,Residential,Beltzhoover,3,18,4,18,3,4-16,-80.00551920556208,40.41412175906885
1978900,0014N00085000000,454 MICHIGAN ST,"MONROEVILLE, PA",430.76,0,0,0,0,Residential,Beltzhoover,3,18,4,18,3,4-21,-79.99828121354696,40.41573398818045
1978901,0015K00228000000,41 SYLVANIA AVE,"PITTSBURGH, PA",1033.05,0,0,0,0,Residential,Beltzhoover,3,18,4,18,3,4-16,-80.00819410027432,40.41680725035959
1978902,0014J00187000000,516 SYLVANIA AVE,"PITTSBURGH, PA",394.55,0,0,0,0,Residential,Beltzhoover,3,18,4,18,3,4-21,-79.99806887969261,40.41724848289673
1978903,0015L00270000000,521 DELMONT AVE,"NEDERLAND, TX",760.5,0,0,0,0,Residential,Beltzhoover,3,18,4,18,3,4-16,-80.00368462879177,40.41766618117825
1978904,0014J00194000000,SYLVANIA AVE,"PITTSBURGH, PA",62.91,0,0,0,0,Residential,Beltzhoover,3,18,4,18,3,4-21,-79.99790232587365,40.417703782453614
1978905,0015M00282000000,CHALFONT ST,"PITTSBURGH, PA",76.24,0,0,0,0,Residential,Beltzhoover,3,18,4,18,3,4-21,-80.00055770509313,40.416447009958304
1978906,0014J00276000000,437 CHALFONT ST,"VERONA, PA",768.13,0,0,0,0,Commercial,Beltzhoover,3,18,4,18,3,4-21,-79.99891704010298,40.4169038175266
1978907,0015S00020000000,303 MICHIGAN ST,"PITTSBURGH, PA",92.37,0,0,0,0,Residential,Beltzhoover,3,18,4,18,3,4-16,-80.0021140013726,40.41608380575805
1978908,0049S00125000000,4401 LIBERTY AVE,"CRANBERRY TWP, PA",443.3,0,0,0,0,Commercial,Bloomfield,7,9,2,9,5,3-6,-79.95220380842316,40.46395969589992
1978909,0049S00103000000,4660 GANGWISH ST,"CRANBERRY TWP, PA",84.48,0,0,0,0,Commercial,Bloomfield,7,9,2,9,5,3-6,-79.95176142191113,40.464045734257326
1978910,0050P00278000000,225 S EVALINE ST,"PITTSBURGH, PA",4095.75,0,0,0,0,Residential,Bloomfield,7,8,2,8,5,3-23,-79.94120764244721,40.46272135114844
1978911,0051G00048000000,427 S PACIFIC AVE,"PITTSBURGH, PA",45.64,0,0,0,0,Residential,Bloomfield,7,8,2,8,5,3-23,-79.94041531389897,40.458806160583016
1978912,0049R00190000000,4088 HOWLEY ST,"CINCINNATI, OH",19.36,0,0,0,0,Residential,Bloomfield,7,9,2,9,5,3-6,-79.953982987716,40.46396830505904
1978913,0051E00221000000,4912 CYPRESS ST,"PITTSBURGH, PA",1727.59,0,0,0,0,Residential,Bloomfield,7,8,2,8,5,3-1,-79.94680162842909,40.45835146845169
1978914,0049L00322000000,4100 PENN AVE,"PITTSBURGH, PA",4198.93,0,0,0,0,Commercial,Bloomfield,7,9,2,9,5,3-6,-79.95487530172096,40.46558462420663
1978915,0026D00123000000,322 TAYLOR ST,"PITTSBURGH, PA",1304.45,0,0,0,0,Residential,Bloomfield,7,8,2,8,5,3-1,-79.95161425144961,40.46213999321027
1978916,0051J00027000000,142 MOREWOOD AVE,"PITTSBURGH, PA",57.32,0,0,0,0,Residential,Bloomfield,7,8,2,8,5,2-23,-79.94862330074504,40.45585238603659
1978917,0050N00192000000,249 EDMOND ST,"PITTSBURGH, PA",692.62,0,0,0,0,Residential,Bloomfield,7,8,2,8,5,3-6,-79.9474245607324,40.463789670459846
1978918,0049S00350000A00,321 DARSIE ST,"PITTSBURGH, PA",1482.87,0,0,0,0,Residential,Bloomfield,7,8,2,8,5,3-1,-79.95270772080016,40.46275888342594
1978919,0050S00289000000,119 S AIKEN AVE,"UPPER MARLBORO, MD",3373.64,0,0,0,0,Residential,Bloomfield,9,8,2,8,5,3-23,-79.93660163181481,40.464004360732034
1978920,0051J00118000000,217 MOREWOOD AVE,"PITTSBURGH, PA",1698.98,0,0,0,0,Residential,Bloomfield,7,8,2,8,5,2-23,-79.94603991172758,40.45607867472825
1978921,0050R00069000000,127 S ATLANTIC AVE,"IRVING, TX",3275.26,0,0,0,0,Residential,Bloomfield,7,8,2,8,5,3-23,-79.9383950820391,40.46376322892711
1978922,0050R00127000000,201 S ATLANTIC AVE,"PITTSBURGH, PA",1633.32,0,0,0,0,Residential,Bloomfield,7,8,2,8,5,3-23,-79.93850630351798,40.46350959421764
1978923,0026H00103000000,4700 LORIGAN ST,"PITTSBURGH, PA",1806.89,0,0,0,0,Commercial,Bloomfield,7,8,2,8,5,3-1,-79.95244804956523,40.45894827016762
1978924,0051E00072000000,616 S MATHILDA ST,"CANFIELD, OH",2056.58,0,0,0,0,Residential,Bloomfield,7,8,2,8,5,3-1,-79.94825732262792,40.45882151404245
1978925,0051C00255000000,331 S AIKEN AVE,"PITTSBURGH, PA",76.24,0,0,0,0,Residential,Bloomfield,7,8,2,8,5,3-23,-79.93743202428622,40.460946702627936
1978926,0051C00215000000,304 S AIKEN AVE,"PITTSBURGH, PA",1333.74,0,0,0,0,Residential,Bloomfield,7,8,2,8,5,3-23,-79.93794847252313,40.46164706313368
1978927,0026H00295000000,449 PEARL ST,"PITTSBURGH, PA",1294.18,0,0,0,0,Residential,Bloomfield,7,8,2,8,5,3-1,-79.95163910971203,40.45959730403185
1978928,0026H00238000000,415 CEDARVILLE ST,"IRVING, TX",1342.57,0,0,0,0,Residential,Bloomfield,7,8,2,8,5,3-1,-79.94997110989338,40.45990771088412
1978929,0049L00382000000,MAIN ST,"PITTSBURGH, PA",196.33,0,0,0,0,Commercial,Bloomfield,7,9,2,9,5,3-6,-79.9546989192986,40.465075522585614
1978930,0051J00075000000,754 BROUGHTON ST,"PITTSBURGH, PA",69.57,0,0,0,0,Residential,Bloomfield,7,8,2,8,5,2-23,-79.94708344533771,40.455183901309496
1978931,0049R00113000000,399 40TH ST,"IRVING, TX",786.02,0,0,0,0,Residential,Bloomfield,7,9,2,9,5,3-6,-79.95750512254902,40.46440688098873
1978932,0049S00137000000,234 ELLA ST,"CRANBERRY TWP, PA",27.55,0,0,0,0,Residential,Bloomfield,7,9,2,9,5,3-6,-79.95151746091616,40.46379079402602
1978933,0050J00162000000,111 PEARL ST,"CINCINNATI, OH",35.87,0,0,0,0,Residential,Bloomfield,7,8,2,8,5,3-6,-79.94796199407814,40.465261102038696
1978934,0051P00009000000,4924 BAUM BLVD,"CRANBERRY TWP, PA",609.92,0,0,0,0,Commercial,Bloomfield,7,8,2,8,5,2-23,-79.94550979702808,40.4545978091795
1978935,0026M00213000000,4 HEMINGWAY ST,"CINCINNATI, OH",72.39,0,0,0,0,Residential,Bloomfield,7,8,2,8,5,2-23,-79.95034285049712,40.456247329996394
1978936,0050S00307000000,5416 CORAL ST,"PITTSBURGH, PA",3146.82,0,0,0,0,Residential,Bloomfield,9,8,2,8,5,3-23,-79.93668031654185,40.462878494595245
1978937,0050S00305000000,5412 CORAL ST,"NEWARK, CA",2062.09,0,0,0,0,Residential,Bloomfield,9,8,2,8,5,3-23,-79.93687223671493,40.462910287385434
1978938,0026D00177000000,423 TAYLOR ST,"ALLISON PARK, PA",611.84,0,0,0,0,Residential,Bloomfield,7,8,2,8,5,3-1,-79.95203936792701,40.46069002704311
1978939,0026D00087000000,432 ORWELL WAY,"PITTSBURGH, PA",697.85,0,0,0,0,Residential,Bloomfield,7,8,2,8,5,3-1,-79.9528565727047,40.46078289377959
1978940,0051N00237000000,4917 CENTRE AVE,"PITTSBURGH, PA",4879.36,0,0,0,0,Commercial,Bloomfield,7,8,2,8,5,2-23,-79.94590225282477,40.45404154486895
1978941,0050R00226000000,212 S PACIFIC AVE,"PITTSBURGH, PA",1392.13,0,0,0,0,Residential,Bloomfield,7,8,2,8,5,3-23,-79.94052543944208,40.46353055345937
1978942,0049L00362000000,4113 MAIN ST,"PITTSBURGH, PA",762.4,0,0,0,0,Residential,Bloomfield,7,9,2,9,5,3-6,-79.95444469216238,40.465325224370815
1978943,0049S00128000000,4401 LIBERTY AVE,"CRANBERRY TWP, PA",24.17,0,0,0,0,Commercial,Bloomfield,7,9,2,9,5,3-6,-79.95175905411426,40.463532396670765
1978944,0049M00173000000,4320 PENN AVE,"ALLISON PARK, PA",2931.43,0,0,0,0,Commercial,Bloomfield,7,9,2,9,5,3-6,-79.95349460999078,40.4657317166967
1978945,0051A00092000000,4776 LIBERTY AVE,"WEST HOMESTEAD, PA",60.99,0,0,0,0,Commercial,Bloomfield,7,8,2,8,5,3-6,-79.94764455856017,40.460635781008925
1978946,0049R00125000000,4006 MINTWOOD ST,"BETHEL PARK, PA",28.52,0,0,0,0,Residential,Bloomfield,7,9,2,9,5,3-6,-79.95724362706868,40.46414442234159
1978947,0049M00131000000,4544 PENN AVE,"PITTSBURGH, PA",436.99,0,0,0,0,Commercial,Bloomfield,7,9,2,9,5,3-6,-79.95071571181357,40.46586955937614
1978948,0051E00320000000,4930 SCIOTA ST,"PITTSBURGH, PA",1860.26,0,0,0,0,Residential,Bloomfield,7,8,2,8,5,3-1,-79.94573273036393,40.45869088358075
1978949,0049M00223000000,4533 FRIENDSHIP AVE,"CANONSBURG, PA",1214.14,0,0,0,0,Residential,Bloomfield,7,9,2,9,5,3-6,-79.95142283081195,40.46554769362909
1978950,0051J00077000000,751 BROUGHTON ST,"PITTSBURGH, PA",71.01,0,0,0,0,Residential,Bloomfield,7,8,2,8,5,2-23,-79.94654175192876,40.45525960684057
1978951,0049R00041000000,4045 MINTWOOD ST,"BETHEL PARK, PA",21.12,0,0,0,0,Residential,Bloomfield,7,9,2,9,5,3-6,-79.95591371723876,40.464875739492896
1978952,0026H00202000000,718 EDMOND ST,"PITTSBURGH, PA",545.43,0,0,0,0,Residential,Bloomfield,7,8,2,8,5,3-1,-79.95036457899137,40.45853009635356
1978953,0050R00093000000,207 S AIKEN AVE,"PITTSBURGH, PA",137.05,0,0,0,0,Residential,Bloomfield,9,8,2,8,5,3-23,-79.93710150131214,40.46309306555692
1978954,0051B00147000000,5120 FRIENDSHIP AVE,"PITTSBURGH, PA",1308.6,0,0,0,0,Residential,Bloomfield,7,8,2,8,5,3-23,-79.94257973010237,40.46201139431213
1978955,0051F00276000000,S EVALINE ST,"PITTSBURGH, PA",1111.21,0,0,0,0,Residential,Bloomfield,7,8,2,8,5,3-23,-79.9416337303551,40.459501073896966
1978956,0049R00138000A00,4006 CABINET WAY,"PITTSBURGH, PA",447.91,0,0,0,0,Residential,Bloomfield,7,9,2,9,5,3-6,-79.9570771141966,40.46390646961101
1978957,0050S00282000000,113 S AIKEN AVE,"PITTSBURGH, PA",3573.76,0,0,0,0,Commercial,Bloomfield,9,8,2,8,5,3-23,-79.93643344626759,40.464195786885455
1978958,0051J00073000000,750 BROUGHTON ST,"PITTSBURGH, PA",61.26,0,0,0,0,Residential,Bloomfield,7,8,2,8,5,2-23,-79.94707204316036,40.455294698272006
1978959,0050N00301000000,4811 FRIENDSHIP AVE,"PITTSBURGH, PA",2674.88,0,0,0,0,Residential,Bloomfield,7,8,2,8,5,3-6,-79.94624443124776,40.463027460042476
1978960,0051K00211000000,WOODWORTH ST,"PITTSBURGH, PA",1111.21,0,0,0,0,Residential,Bloomfield,7,8,2,8,5,3-1,-79.94405165999541,40.45652206122913
1978961,0050R00171000000,205 S PACIFIC AVE,"PITTSBURGH, PA",2895.95,0,0,0,0,Residential,Bloomfield,7,8,2,8,5,3-23,-79.93989712855827,40.46368306876546
1978962,0051C00086000000,243 S PACIFIC AVE,"PITTSBURGH, PA",2263,0,0,0,0,Residential,Bloomfield,7,8,2,8,5,3-23,-79.94004180728841,40.4624240204674
1978963,0051E00207000000,4804 CYPRESS ST,"PITTSBURGH, PA",1780.23,0,0,0,0,Residential,Bloomfield,7,8,2,8,5,3-1,-79.94771937319241,40.45891995206726
1978964,0051F00060000000,535 S WINEBIDDLE ST,"PITTSBURGH, PA",2108.79,0,0,0,0,Residential,Bloomfield,7,8,2,8,5,3-1,-79.9442899175836,40.45769757794498
1978965,0051G00047000000,425 S PACIFIC AVE,"IRVING, TX",5169.82,0,0,0,0,Residential,Bloomfield,7,8,2,8,5,3-23,-79.94040500273562,40.45890360430829
1978966,0051C00225000000,324 S AIKEN AVE,"CORAOPOLIS, PA",2376.14,0,0,0,0,Residential,Bloomfield,7,8,2,8,5,3-23,-79.9381679231439,40.461097083325775
1978967,0049S00101000000,4664 GANGWISH ST,"CRANBERRY TWP, PA",47.41,0,0,0,0,Residential,Bloomfield,7,9,2,9,5,3-6,-79.95162796005968,40.46403500684879
1978968,0049M00289000000,4430 MILGATE ST,"PITTSBURGH, PA",756.61,0,0,0,0,Residential,Bloomfield,7,9,2,9,5,3-6,-79.95234606483376,40.46515426944074
1978969,0026D00236000000,320 PEARL ST,"DES MOINES, IA",705.97,0,0,0,0,Residential,Bloomfield,7,8,2,8,5,3-1,-79.95058595931198,40.46165559032838
1978970,0049S00245000A00,221 SAPLING WAY,"PITTSBURGH, PA",171.06,0,0,0,0,Residential,Bloomfield,7,9,2,9,5,3-6,-79.94998294423584,40.46312500654968
1978971,0051E00060000000,4786 CYPRESS ST,"PITTSBURGH, PA",259.46,0,0,0,0,Residential,Bloomfield,7,8,2,8,5,3-1,-79.9483487746985,40.45932617900001
1978972,0051A00149000000,4749 LIBERTY AVE,"PITTSBURGH, PA",1667.76,0,0,0,0,Commercial,Bloomfield,7,8,2,8,5,3-6,-79.9483600933752,40.46155992034661
1978973,0049L00338000000,4044 PENN AVE,"BETHEL PARK, PA",45.71,0,0,0,0,Residential,Bloomfield,7,9,2,9,5,3-6,-79.95610131552911,40.465236863531686
1978974,0051A00151000000,4745 LIBERTY AVE,"PITTSBURGH, PA",2491.15,0,0,0,0,Commercial,Bloomfield,7,8,2,8,5,3-6,-79.94845012789109,40.46160935594556
1978975,0026H00212000000,4737 LORIGAN ST,"PITTSBURGH, PA",1406.63,0,0,0,0,Residential,Bloomfield,7,8,2,8,5,3-1,-79.95098726371482,40.45870733639124
1978976,0051E00233000A00,605 GROSS ST,"PITTSBURGH, PA",1187.45,0,0,0,0,Residential,Bloomfield,7,8,2,8,5,3-1,-79.94608450776536,40.457901285175595
1978977,0049M00192000000,4416 WOOLSLAYER WAY,"PITTSBURGH, PA",1196.96,0,0,0,0,Residential,Bloomfield,7,9,2,9,5,3-6,-79.95285843416347,40.465577848256345
1978978,0050R00185000000,231 S PACIFIC AVE,"PITTSBURGH, PA",4228.26,0,0,0,0,Residential,Bloomfield,7,8,2,8,5,3-23,-79.9398804586686,40.46295494075384
1978979,0051F00058000000,537 S WINEBIDDLE ST,"PITTSBURGH, PA",1207.14,0,0,0,0,Residential,Bloomfield,7,8,2,8,5,3-1,-79.94436224965409,40.45764069118205
1978980,0050S00283000A00,LATHAM ST,"PITTSBURGH, PA",45.74,0,0,0,0,Commercial,Bloomfield,9,8,2,8,5,3-23,-79.93624233100921,40.46417735068096
1978981,0049S00246000000,223 TAYLOR ST,"PITTSBURGH, PA",200.42,0,0,0,0,Residential,Bloomfield,7,9,2,9,5,3-6,-79.95018636830336,40.4631723070359
1978982,0051B00090000000,320 S WINEBIDDLE ST,"IRVING, TX",3145.65,0,0,0,0,Residential,Bloomfield,7,8,2,8,5,3-6,-79.94370355039797,40.46168230659268
1978983,0051N00054000000,4767 BAUM BLVD,"PITTSBURGH, PA",4002.6,0,0,0,0,Commercial,Bloomfield,7,8,2,8,5,2-23,-79.94789511209137,40.45457373757734
1978984,0051B00178000000,348 WEST PENN PL,"CINCINNATI, OH",33.79,0,0,0,0,Residential,Bloomfield,7,8,2,8,5,3-23,-79.94281809328719,40.46089088534487
1978985,0050R00220000000,218 S PACIFIC AVE,"GLENSHAW, PA",623.89,0,0,0,0,Residential,Bloomfield,7,8,2,8,5,3-23,-79.94054575262464,40.4633584691537
1978986,0051B00179000000,350 WEST PENN PL,"IRVING, TX",1554.13,0,0,0,0,Residential,Bloomfield,7,8,2,8,5,3-23,-79.942828283905,40.4608149525522
1978987,0026D00209000000,420 PEARL ST,"PITTSBURGH, PA",1416.17,0,0,0,0,Residential,Bloomfield,7,8,2,8,5,3-1,-79.95149072726518,40.46055739274296
1978988,0051F00205000000,412 S WINEBIDDLE ST,"PITTSBURGH, PA",2165.23,0,0,0,0,Residential,Bloomfield,7,8,2,8,5,3-6,-79.94395466033171,40.45967600552762
1978989,0051B00148000000,5122 FRIENDSHIP AVE,"PITTSBURGH, PA",2108.37,0,0,0,0,Residential,Bloomfield,7,8,2,8,5,3-23,-79.94244648935418,40.46199731572314
1978990,0050P00215000000,5132 PENN AVE,"PITTSBURGH, PA",2979.09,0,0,0,0,Commercial,Bloomfield,7,8,2,8,5,3-23,-79.94157800548184,40.46450526999942
1978991,0051A00043000000,504 EDMOND ST,"PITTSBURGH, PA",869.88,0,0,0,0,Residential,Bloomfield,7,8,2,8,5,3-1,-79.94895207241753,40.46045326996872
1978992,0050R00179000000,223 S PACIFIC AVE,"PITTSBURGH, PA",863.86,0,0,0,0,Residential,Bloomfield,7,8,2,8,5,3-23,-79.93984355698352,40.46322913411535
1978993,0049R00043000000,4041 MINTWOOD ST,"BETHEL PARK, PA",21,0,0,0,0,Residential,Bloomfield,7,9,2,9,5,3-6,-79.95601628839313,40.464860314772345
1978994,0050S00293000000,125 S AIKEN AVE,"PITTSBURGH, PA",2973.38,0,0,0,0,Residential,Bloomfield,9,8,2,8,5,3-23,-79.93662138132451,40.46383593314911
1978995,0051A00160000100,238 CEDARVILLE ST,"DES MOINES, IA",922.5,0,0,0,0,Residential,Bloomfield,7,8,2,8,5,3-6,-79.94888285801886,40.46199399319274
1978996,0051A00051000000,518 EDMOND ST,"PITTSBURGH, PA",2252.89,0,0,0,0,Residential,Bloomfield,7,8,2,8,5,3-1,-79.94921240372288,40.46012132998287
1978997,0049S00236000B00,206 TAYLOR ST REAR,"PITTSBURGH, PA",400.28,0,0,0,0,Residential,Bloomfield,7,9,2,9,5,3-6,-79.95031941431608,40.46384970015069
1978998,0049R00281000000,4071 LIBERTY AVE,"PITTSBURGH, PA",2304.37,0,0,0,0,Commercial,Bloomfield,7,9,2,9,5,3-6,-79.95452356506446,40.463541400117606
1978999,0026D00182000000,433 TAYLOR ST,"PITTSBURGH, PA",1566.75,0,0,0,0,Residential,Bloomfield,7,8,2,8,5,3-1,-79.95222720814601,40.46045850552154
1979000,0051G00066000000,5214 CELIA PL,"PITTSBURGH, PA",2615.78,0,0,0,0,Residential,Bloomfield,7,8,2,8,5,3-23,-79.94013408719637,40.45782791485657
1979001,0051F00206000000,410 S WINEBIDDLE ST,"PITTSBURGH, PA",2106.14,0,0,0,0,Residential,Bloomfield,7,8,2,8,5,3-6,-79.9439249179674,40.459731044555895
1979002,0050R00131000000,219 S ATLANTIC AVE,"PITTSBURGH, PA",3598.55,0,0,0,0,Residential,Bloomfield,7,8,2,8,5,3-23,-79.93843554945757,40.463237656038814
1979003,0049R00282000000,4069 LIBERTY AVE,"PITTSBURGH, PA",3352.67,0,0,0,0,Residential,Bloomfield,7,9,2,9,5,3-6,-79.95459573609118,40.463526606373165
1979004,0051B00196000000,357 WEST PENN PL,"PITTSBURGH, PA",2348.2,0,0,0,0,Residential,Bloomfield,7,8,2,8,5,3-23,-79.94242578215942,40.46051525809829
1979005,0051E00198000000,4807 YEW ST,"SHELDON, WA",11426.48,0,0,0,0,Commercial,Bloomfield,7,8,2,8,5,3-1,-79.94765604048406,40.45834469782655
1979006,0049L00383000000,4116 MAIN ST,"PITTSBURGH, PA",1538.79,0,0,0,0,Commercial,Bloomfield,7,9,2,9,5,3-6,-79.95472695989875,40.46512087155639
1979007,0049S00102000000,4660 GANGWISH ST,"CRANBERRY TWP, PA",28.1,0,0,0,0,Commercial,Bloomfield,7,9,2,9,5,3-6,-79.9517597521758,40.46392880766569
1979008,0051E00174000000,629 S MILLVALE AVE,"GLENSHAW, PA",1641.08,0,0,0,0,Commercial,Bloomfield,7,8,2,8,5,3-1,-79.9472670637278,40.45776565925864
1979009,0051E00020000000,506 S MATHILDA ST,"POMONA, CA",1244.63,0,0,0,0,Residential,Bloomfield,7,8,2,8,5,3-1,-79.94778082585381,40.45984285963597
1979010,0051G00202000000,352 S AIKEN AVE,"GLENSHAW, PA",2136.02,0,0,0,0,Residential,Bloomfield,7,8,2,8,5,3-23,-79.93831312688101,40.459997298601365
1979011,0051E00290000A00,4801 CYPRESS ST,"DES MOINES, IA",1429.52,0,0,0,0,Residential,Bloomfield,7,8,2,8,5,3-1,-79.9476453141638,40.45924167238024
1979012,0051E00273000000,4915 CYPRESS ST,"PITTSBURGH, PA",392.88,0,0,0,0,Residential,Bloomfield,7,8,2,8,5,3-1,-79.9464064209929,40.45864652697336
1979013,0051N00089000000,755 BROUGHTON ST,"WEXFORD, PA",3812,0,0,0,0,Residential,Bloomfield,7,8,2,8,5,2-23,-79.94658965817656,40.45513287844085
1979014,0050N00311000000,242 S MILLVALE AVE,"IRVING, TX",2642.46,0,0,0,0,Residential,Bloomfield,7,8,2,8,5,3-6,-79.94580082736694,40.463419054307295
1979015,0049M00161000000,4424 PENN AVE,"CANONSBURG, PA",19060,0,0,0,0,Commercial,Bloomfield,7,9,2,9,5,3-6,-79.9525507914463,40.4658765064793
1979016,0049R00138000000,4002 HOWLEY ST,"PITTSBURGH, PA",737.63,0,0,0,0,Residential,Bloomfield,7,9,2,9,5,3-6,-79.95708681120814,40.46377399568566
1979017,0051A00150000000,4747 LIBERTY AVE,"PITTSBURGH, PA",1667.76,0,0,0,0,Commercial,Bloomfield,7,8,2,8,5,3-6,-79.94840364189098,40.4615878572833
1979018,0050P00245000000,212 S EVALINE ST,"IRVING, TX",3144.92,0,0,0,0,Residential,Bloomfield,7,8,2,8,5,3-23,-79.94165194460369,40.463732624460825
1979019,0049M00198000000,4413 MILGATE ST,"PITTSBURGH, PA",2273.87,0,0,0,0,Residential,Bloomfield,7,9,2,9,5,3-6,-79.95286486113717,40.46543692203952
1979020,0049R00175000000,4083 HOWLEY ST,"PITTSBURGH, PA",479.96,0,0,0,0,Residential,Bloomfield,7,9,2,9,5,3-6,-79.95422139053679,40.46430863254152
1979021,0049M00172000000,4320 PENN AVE,"ALLISON PARK, PA",106.73,0,0,0,0,Commercial,Bloomfield,7,9,2,9,5,3-6,-79.95342708856533,40.46574110346632
1979022,0049R00176000000,4086 CABINET ST,"IRVING, TX",18.58,0,0,0,0,Residential,Bloomfield,7,9,2,9,5,3-6,-79.95415555481377,40.464326698993325
1979023,0051B00200000000,349 WEST PENN PL,"GLENSHAW, PA",2304.37,0,0,0,0,Residential,Bloomfield,7,8,2,8,5,3-23,-79.94239522467657,40.46073538492104
1979024,0051E00039000000,4769 CYPRESS ST,"PITTSBURGH, PA",753.61,0,0,0,0,Residential,Bloomfield,7,8,2,8,5,3-1,-79.94854939334307,40.45987651433883
1979025,0050N00004000A00,4633 TORLEY ST,"PITTSBURGH, PA",1745.92,0,0,0,0,Residential,Bloomfield,7,9,2,9,5,3-6,-79.9485944025438,40.46465117403358
1979026,0026D00130000000,4602 LIBERTY AVE,"PITTSBURGH, PA",119.13,0,0,0,0,Commercial,Bloomfield,7,8,2,8,5,3-6,-79.95085959364826,40.46234449113245
1979027,0051B00177000000,344 WEST PENN PL,"CINCINNATI, OH",59.43,0,0,0,0,Residential,Bloomfield,7,8,2,8,5,3-23,-79.94280555524435,40.46097451156607
1979028,0051J00089000000,214 MOREWOOD AVE,"MONROEVILLE, PA",2554.04,0,0,0,0,Residential,Bloomfield,7,8,2,8,5,2-23,-79.94622934864815,40.45574967790142
1979029,0050P00214000000,5130 PENN AVE,"PITTSBURGH, PA",2418.73,0,0,0,0,Commercial,Bloomfield,7,8,2,8,5,3-23,-79.94166396032261,40.464521274054114
1979030,0051B00244000000,369 S EVALINE ST,"PITTSBURGH, PA",47.16,0,0,0,0,Residential,Bloomfield,7,8,2,8,5,3-23,-79.94153204522456,40.46024601968566
1979031,0049M00222000000,COMRIE ALY,"CANONSBURG, PA",144.88,0,0,0,0,Residential,Bloomfield,7,9,2,9,5,3-6,-79.95132465940752,40.465709978509416
1979032,0049S00248000001,227 TAYLOR ST,"ALLISON PARK, PA",1581.98,0,0,0,0,Residential,Bloomfield,7,9,2,9,5,3-6,-79.9502815010811,40.463092143892254
1979033,0051A00037000000,418 EDMOND ST,"PITTSBURGH, PA",310.29,0,0,0,0,Residential,Bloomfield,7,8,2,8,5,3-1,-79.94871935156878,40.46073038371809
1979034,0049M00193000000,4418 WOOLSLAYER WAY,"AMBLER, PA",1099.77,0,0,0,0,Residential,Bloomfield,7,9,2,9,5,3-6,-79.95281480763757,40.46558117325864
1979035,0049M00132000000,4542 PENN AVE,"PITTSBURGH, PA",347.79,0,0,0,0,Residential,Bloomfield,7,9,2,9,5,3-6,-79.95078642978784,40.46587310890772
1979036,0002H00034000000,1520 5TH AVE,"GLENSHAW, PA",1620.1,0,0,0,0,Commercial,Bluff,6,1,3,1,2,2-4,-79.9843556483751,40.43829026238078
1979037,0002M00184000000,19 PRIDE ST,"PITTSBURGH, PA",629,0,0,0,0,Commercial,Bluff,6,1,3,1,2,2-4,-79.98471747718352,40.437799635377296
1979038,0002L00221000000,1000 LOCUST ST,"PITTSBURGH, PA",1510.42,0,0,0,0,Gov't Owned,Bluff,6,1,3,1,2,2-4,-79.9908760879223,40.43646924757179
1979039,0002G00009000000,1016 5TH AVE,"PITTSBURGH, PA",9871.18,0,0,0,0,Commercial,Bluff,6,1,3,1,2,2-4,-79.99031174011598,40.438543146000725
1979040,0011J00191000000,1806 TUSTIN ST,"PITTSBURGH, PA",571.82,0,0,0,0,Residential,Bluff,6,1,3,1,2,2-1,-79.98114972276814,40.436926896828815
1979041,0002M00177000000,19 PRIDE ST,"PITTSBURGH, PA",362.14,0,0,0,0,Commercial,Bluff,6,1,3,1,2,2-4,-79.98492999689232,40.43785562724835
1979042,0011J00170000C00,LOCUST ST,"PITTSBURGH, PA",158.21,0,0,0,0,Residential,Bluff,6,1,3,1,2,2-1,-79.98223988989443,40.43681493569089
1979043,0011K00208000A00,FORBES AVE,"PITTSBURGH, PA",91.49,0,0,0,0,Commercial,Bluff,6,4,3,4,2,2-1,-79.97463737294433,40.436868134432416
1979044,0002G00013000000,1030 5TH AVE,"KING OF PRUSSI, PA",577.39,0,0,0,0,Commercial,Bluff,6,1,3,1,2,2-4,-79.98991027624174,40.43852321812116
1979045,0002G00030000000,1208 5TH AVE,"PITTSBURGH, PA",3099.15,0,0,0,0,Commercial,Bluff,6,1,3,1,2,2-4,-79.98856741345726,40.438517080593215
1979046,0011K00246000000,SENECA ST,"PITTSBURGH, PA",26.68,0,0,0,0,Residential,Bluff,6,1,3,1,2,2-1,-79.97645642777638,40.436674923322606
1979047,0011K00161000000,2033 TUSTIN ST,"PITTSBURGH, PA",362.16,0,0,0,0,Residential,Bluff,6,1,3,1,2,2-1,-79.97645642520493,40.436953880531696
1979048,0002M00187000000,19 PRIDE ST,"PITTSBURGH, PA",381.2,0,0,0,0,Commercial,Bluff,6,1,3,1,2,2-4,-79.98456239286004,40.43778585967826
1979049,0011K00207000000,2132 FORBES AVE,"PITTSBURGH, PA",1995.59,0,0,0,0,Commercial,Bluff,6,4,3,4,2,2-1,-79.97469590438021,40.436969431479326
1979050,0011K00123000000,1927 FORBES AVE,"PITTSBURGH, PA",22.89,0,0,0,0,Residential,Bluff,6,1,3,1,2,2-1,-79.9784085466148,40.43762163768108
1979051,0011K00255000000,2020 TUSTIN ST,"PITTSBURGH, PA",287.17,0,0,0,0,Commercial,Bluff,6,1,3,1,2,2-1,-79.97691400071177,40.436682907045125
1979052,0011J00111000000,1806 FORBES AVE,"PITTSBURGH, PA",562.28,0,0,0,0,Residential,Bluff,6,1,3,1,2,2-1,-79.98111142805745,40.437326260116
1979053,0002M00183000000,19 PRIDE ST,"PITTSBURGH, PA",314.5,0,0,0,0,Commercial,Bluff,6,1,3,1,2,2-4,-79.98480535774573,40.43780523971427
1979054,0011J00074000B00,FORBES AVE,"PITTSBURGH, PA",28.6,0,0,0,0,Residential,Bluff,6,1,3,1,2,2-1,-79.9821123784187,40.43770951940162
1979055,0011J00156000000,1914 FORBES AVE,"PITTSBURGH, PA",512.72,0,0,0,0,Residential,Bluff,6,1,3,1,2,2-1,-79.97892373738416,40.43722471995931
1979056,0011J00230000000,303 GIST ST,"PITTSBURGH, PA",1249.17,0,0,0,0,Industrial,Bluff,6,1,3,1,2,2-1,-79.97930694626086,40.43684766969015
1979057,0011J00157000000,1914 FORBES AVE,"PITTSBURGH, PA",26.68,0,0,0,0,Residential,Bluff,6,1,3,1,2,2-1,-79.97886831352541,40.437217227967
1979058,0011K00143000B00,2015 TUSTIN ST,"PITTSBURGH, PA",221.12,0,0,0,0,Residential,Bluff,6,1,3,1,2,2-1,-79.97734504854118,40.4369905469604
1979059,0011J00177000000,45 MILTENBERGER ST,"CARNEGIE, PA",1126.45,0,0,0,0,Residential,Bluff,6,1,3,1,2,2-1,-79.98170074399245,40.43674394340364
1979060,0002F00320000000,820 5TH AVE,"MIAMI, FL",4574.42,0,0,0,0,Commercial,Bluff,6,1,3,1,2,2-4,-79.99194511061587,40.43861562205952
1979061,0011K00261000000,2020 TUSTIN ST,"PITTSBURGH, PA",4382.55,0,0,0,0,Industrial,Bluff,6,1,3,1,2,2-1,-79.9770969040116,40.43657689088373
1979062,0002M00186000000,19 PRIDE ST,"PITTSBURGH, PA",381.2,0,0,0,0,Commercial,Bluff,6,1,3,1,2,2-4,-79.98462864109096,40.43779016764195
1979063,0002M00176000000,19 PRIDE ST,"PITTSBURGH, PA",364.06,0,0,0,0,Commercial,Bluff,6,1,3,1,2,2-4,-79.98493193777878,40.43781278467888
1979064,0011K00144000A00,2013 TUSTIN ST,"PITTSBURGH, PA",272.57,0,0,0,0,Residential,Bluff,6,1,3,1,2,2-1,-79.97738896698446,40.43699289380247
1979065,0011J00074000C00,FORBES AVE,"PITTSBURGH, PA",26.68,0,0,0,0,Residential,Bluff,6,1,3,1,2,2-1,-79.98205535515571,40.43770696014387
1979066,0002H00022000000,1450 5TH AVE,"MARS, PA",11660.91,0,0,0,0,Commercial,Bluff,6,1,3,1,2,2-4,-79.98526792707362,40.43832607387903
1979067,0002M00193000000,13 PRIDE ST,"PITTSBURGH, PA",289.73,0,0,0,0,Commercial,Bluff,6,1,3,1,2,2-4,-79.98446664436784,40.43794495402864
1979068,0011K00043000000,5TH AVE,"PITTSBURGH, PA",63.5,0,0,0,0,Residential,Bluff,6,4,3,4,2,2-1,-79.97547213273718,40.437876549557565
1979069,0011J00256000000,42 GIST ST,"EMLENTON, PA",453.65,0,0,0,0,Residential,Bluff,6,1,3,1,2,2-1,-79.97979551236827,40.43625853815182
1979070,0011J00179000000,308 MILTENBERGER ST,"WESTPORT, CT",194.56,0,0,0,0,Commercial,Bluff,6,1,3,1,2,2-1,-79.98169417991316,40.436842626854926
1979071,0002M00192000000,13 PRIDE ST,"PITTSBURGH, PA",289.73,0,0,0,0,Commercial,Bluff,6,1,3,1,2,2-4,-79.98447162451619,40.4378774859561
1979072,0011K00156000000,TUSTIN ST,"PITTSBURGH, PA",30.5,0,0,0,0,Residential,Bluff,6,1,3,1,2,2-1,-79.97668097288367,40.43695644803579
1979073,0002M00175000000,13 PRIDE ST,"PITTSBURGH, PA",379.3,0,0,0,0,Commercial,Bluff,6,1,3,1,2,2-4,-79.98493760710986,40.43776716195461
1979074,0011K00271000000,2019 BLVD OF THE ALLIES,"PITTSBURGH, PA",211.58,0,0,0,0,Residential,Bluff,6,1,3,1,2,2-1,-79.97725040146683,40.43645501519305
1979075,0011K00162000A00,TUSTIN ST,"PITTSBURGH, PA",24.79,0,0,0,0,Residential,Bluff,6,1,3,1,2,2-1,-79.9763479969844,40.43695108528056
1979076,0011J00173000000,1721 LOCUST ST,"WESTPORT, CT",191.86,0,0,0,0,Commercial,Bluff,6,1,3,1,2,2-1,-79.98200759822748,40.43681422781792
1979077,0011J00185000000,305 MILTENBERGER ST,"CINCINNATI, OH",24.43,0,0,0,0,Residential,Bluff,6,1,3,1,2,2-1,-79.98128925692451,40.43688475769533
1979078,0033E00019000000,4 CAMFIELD ST,"PITTSBURGH, PA",1052.11,0,0,0,0,Residential,Bon Air,4,18,4,18,3,4-7,-79.9973253424214,40.41104120917553
1979079,0033E00169000000,115 REIFERT ST,"CANONSBURG, PA",1301.81,0,0,0,0,Residential,Bon Air,4,18,4,18,3,4-7,-79.99755490018995,40.4093850631391
1979080,0033J00163000000,119 SCHUCHERT ST,"BETHEL PARK, PA",482.22,0,0,0,0,Residential,Bon Air,4,18,4,18,3,4-7,-79.99728553865037,40.40818605577447
1979081,0033N00008000000,447 CONNISTON AVE,"PITTSBURGH, PA",465.51,0,0,0,0,Residential,Bon Air,4,18,4,18,3,4-7,-79.99893198607897,40.40433672817082
1979082,0033N00067000000,422 CAMFIELD ST,"PITTSBURGH, PA",1467.64,0,0,0,0,Residential,Bon Air,4,18,4,18,3,4-7,-79.99846079930053,40.40503403414554
1979083,0075C00046000000,3547 MASSACHUSETTS AVE,"PITTSBURGH, PA",884.39,0,0,0,0,Residential,Brighton Heights,1,27,1,27,1,1-14,-80.04039601433745,40.47966581738719
1979084,0076A00153000000,3511 CAMPUS ST,"IRVING, TX",1070,0,0,0,0,Residential,Brighton Heights,1,27,1,27,1,1-14,-80.0296076277031,40.47989016961394
1979085,0114N00324000000,108 TERMON GARDENS DR,"PITTSBURGH, PA",49.56,0,0,0,0,Residential,Brighton Heights,1,27,1,27,1,1-14,-80.04650027267671,40.48310453737246
1979086,0114N00302000000,107 TERMON GARDENS DR,"PITTSBURGH, PA",53.37,0,0,0,0,Residential,Brighton Heights,1,27,1,27,1,1-14,-80.04607657798307,40.482984938792
1979087,0114M00027000000,3821 BRIGHTON RD,"PITTSBURGH, PA",1102.42,0,0,0,0,Residential,Brighton Heights,1,27,1,27,1,1-14,-80.03644445561153,40.48496733247436
1979088,0114N00338000000,150 TERMON GARDENS DR,"PITTSBURGH, PA",28.6,0,0,0,0,Residential,Brighton Heights,1,27,1,27,1,1-14,-80.04680584922244,40.48247275294492
1979089,0114N00310000000,131 TERMON GARDENS DR,"PITTSBURGH, PA",28.6,0,0,0,0,Residential,Brighton Heights,1,27,1,27,1,1-14,-80.04625081977443,40.48262873540875
1979090,0114N00344000000,226 TERMON GARDENS DR,"PITTSBURGH, PA",28.6,0,0,0,0,Residential,Brighton Heights,1,27,1,27,1,1-14,-80.04692874734772,40.48299153174474
1979091,0114N00300000000,TERMON GARDENS DR,"PITTSBURGH, PA",38.12,0,0,0,0,Residential,Brighton Heights,1,27,1,27,1,1-14,-80.04711930469223,40.48256073670629
1979092,0114N00336000000,144 TERMON GARDENS DR,"PITTSBURGH, PA",28.6,0,0,0,0,Residential,Brighton Heights,1,27,1,27,1,1-14,-80.04676564510908,40.48255772792342
1979093,0114K00170000000,3825 CALIFORNIA AVE,"PITTSBURGH, PA",853.91,0,0,0,0,Residential,Brighton Heights,1,27,1,27,1,1-14,-80.04119380040589,40.48448001503986
1979094,0075G00124000000,3534 MASSACHUSETTS AVE,"PITTSBURGH, PA",2186.19,0,0,0,0,Residential,Brighton Heights,1,27,1,27,1,1-14,-80.03975009839756,40.47920244659454
1979095,0114N00318000000,153 TERMON GARDENS DR,"PITTSBURGH, PA",28.6,0,0,0,0,Residential,Brighton Heights,1,27,1,27,1,1-14,-80.04641175586283,40.48230883698745
1979096,0114N00362000000,213 TERMON GARDENS DR,"PITTSBURGH, PA",28.6,0,0,0,0,Residential,Brighton Heights,1,27,1,27,1,1-14,-80.04742743918467,40.48294424272397
1979097,0075G00127000000,3524 MASSACHUSETTS AVE,"PITTSBURGH, PA",276.38,0,0,0,0,Residential,Brighton Heights,1,27,1,27,1,1-14,-80.03968090162749,40.478985008820544
1979098,0075F00005000000,3541 CALIFORNIA AVE,"CARLSBAD, CA",2668.4,0,0,0,0,Residential,Brighton Heights,1,27,1,27,1,1-14,-80.04125407460228,40.479334603766056
1979099,0114N00342000000,232 TERMON GARDENS DR,"PITTSBURGH, PA",28.6,0,0,0,0,Residential,Brighton Heights,1,27,1,27,1,1-14,-80.04688639204383,40.4830786342116
1979100,0076E00043000000,1134 WOODS RUN AVE,"PITTSBURGH, PA",30.46,0,0,0,0,Commercial,Brighton Heights,1,27,1,27,1,1-14,-80.0297731751564,40.477624106278206
1979101,0114H00058000000,100 RICHBARN RD,"PITTSBURGH, PA",20.83,0,0,0,0,Residential,Brighton Heights,1,27,1,27,1,1-14,-80.03663345814172,40.48689972096789
1979102,0075D00114000000,1344 DAVIS AVE,"PITTSBURGH, PA",36.53,0,0,0,0,Residential,Brighton Heights,1,27,1,27,1,1-14,-80.03575062562287,40.481607532843874
1979103,0114P00210000000,1805 MORRELL ST,"PITTSBURGH, PA",40.19,0,0,0,0,Residential,Brighton Heights,1,27,1,27,1,1-14,-80.04272536875845,40.48275637278944
1979104,0114N00306000000,119 TERMON GARDENS DR,"PITTSBURGH, PA",28.6,0,0,0,0,Residential,Brighton Heights,1,27,1,27,1,1-14,-80.04617314382129,40.48279023936875
1979105,0076A00033000000,965 DAVIS AVE,"PITTSBURGH, PA",2039.44,0,0,0,0,Residential,Brighton Heights,1,27,1,27,1,1-14,-80.02914303923073,40.481151724961016
1979106,0075H00147000000,3435 GASS AVE,"PITTSBURGH, PA",1412.35,0,0,0,0,Residential,Brighton Heights,1,27,1,27,1,1-14,-80.03516498119107,40.47794137800237
1979107,0114K00272000000,1853 WITTMER ST,"PITTSBURGH, PA",715.51,0,0,0,0,Residential,Brighton Heights,1,27,1,27,1,1-14,-80.04211058942205,40.48631944956925
1979108,0114N00368000000,197 TERMON GARDENS DR,"PITTSBURGH, PA",158.21,0,0,0,0,Residential,Brighton Heights,1,27,1,27,1,1-14,-80.04743854316534,40.482502164172985
1979109,0115N00072000000,1124 DAVIS AVE,"IRVING, TX",2188.84,0,0,0,0,Residential,Brighton Heights,1,27,1,27,1,1-14,-80.03140344722348,40.48203987852084
1979110,0114S00264000000,1234 PEMBERTON ST,"PITTSBURGH, PA",20.79,0,0,0,0,Residential,Brighton Heights,1,27,1,27,1,1-14,-80.03402523274201,40.48263876130727
1979111,0114B00014000000,4081 BRANDON RD,"PITTSBURGH, PA",1601.04,0,0,0,0,Residential,Brighton Heights,1,27,1,27,1,1-14,-80.04270386620112,40.489552131488665
1979112,0114N00330000000,126 TERMON GARDENS DR,"PITTSBURGH, PA",28.6,0,0,0,0,Residential,Brighton Heights,1,27,1,27,1,1-14,-80.0466395830595,40.48281445897337
1979113,0076E00053000000,1148 WOODS RUN AVE,"PITTSBURGH, PA",438.38,0,0,0,0,Residential,Brighton Heights,1,27,1,27,1,1-14,-80.03027095763696,40.47708776376828
1979114,0076A00135000000,963 STANFORD RD,"WESTLAKE, TX",686.91,0,0,0,0,Residential,Brighton Heights,1,27,1,27,1,1-14,-80.02882489675973,40.48048814664363
1979115,0044C00235000000,ECKERT ST,"MONROEVILLE, PA",22.87,0,0,0,0,Gov't Owned,Brighton Heights,6,27,1,27,1,1-14,-80.03745442039775,40.47200122616554
1979116,0075G00065000000,3522 CALIFORNIA AVE,"PITTSBURGH, PA",8052.86,0,0,0,0,Commercial,Brighton Heights,1,27,1,27,1,1-14,-80.04029075699216,40.47884043515848
1979117,0114N00308000000,125 TERMON GARDENS DR,"PITTSBURGH, PA",28.6,0,0,0,0,Residential,Brighton Heights,1,27,1,27,1,1-14,-80.04620997476727,40.48270852901157
1979118,0114D00157000000,812 BENTON AVE,"PITTSBURGH, PA",193.64,0,0,0,0,Residential,Brighton Heights,1,27,1,27,1,1-14,-80.03580788176473,40.49060877719585
1979119,0114N00360000000,219 TERMON GARDENS DR,"PITTSBURGH, PA",28.6,0,0,0,0,Residential,Brighton Heights,1,27,1,27,1,1-14,-80.04738774199086,40.4830291983653
1979120,0075B00261000B00,3607 CALIFORNIA AVE UNIT B,"PITTSBURGH, PA",2077.54,0,0,0,0,Residential,Brighton Heights,1,27,1,27,1,1-14,-80.04142906890337,40.48040824111101
1979121,0114G00016000000,3936 MCCLURE AVE,"IRVING, TX",19.81,0,0,0,0,Residential,Brighton Heights,1,27,1,27,1,1-14,-80.039699184371,40.48677704138846
1979122,0114N00354000000,237 TERMON GARDENS DR,"PITTSBURGH, PA",49.56,0,0,0,0,Residential,Brighton Heights,1,27,1,27,1,1-14,-80.04724513202049,40.48331567112068
1979123,0114N00320000000,157 TERMON GARDENS DR,"PITTSBURGH, PA",32.41,0,0,0,0,Residential,Brighton Heights,1,27,1,27,1,1-14,-80.0464710157334,40.48223333128846
1979124,0115A00226000000,FLORA ST,"PITTSBURGH, PA",507,0,0,0,0,Gov't Owned,Brighton Heights,1,27,1,27,1,1-14,-80.03184919625981,40.490845262423456
1979125,0114S00127000000,3700 BRIGHTON RD,"PITTSBURGH, PA",3051.52,0,0,0,0,Residential,Brighton Heights,1,27,1,27,1,1-14,-80.03515924845526,40.48325081045339
1979126,0114M00088000000,3804 BRIGHTON RD,"ALLISON PARK, PA",1541.96,0,0,0,0,Residential,Brighton Heights,1,27,1,27,1,1-14,-80.0356889785439,40.48476741502344
1979127,0114M00091000000,3800 BRIGHTON RD,"ALLISON PARK, PA",2535,0,0,0,0,Commercial,Brighton Heights,1,27,1,27,1,1-14,-80.0356893954446,40.48455600093048
1979128,0114N00346000000,220 TERMON GARDENS DR,"PITTSBURGH, PA",28.6,0,0,0,0,Residential,Brighton Heights,1,27,1,27,1,1-14,-80.04697041251706,40.482907247864105
1979129,0114G00094000000,3936 BRIGHTON RD,"PITTSBURGH, PA",1470.27,0,0,0,0,Residential,Brighton Heights,1,27,1,27,1,1-14,-80.03896265515797,40.48752560101257
1979130,0114M00172000000,3833 ATKINS ST,"PITTSBURGH, PA",1020.47,0,0,0,0,Residential,Brighton Heights,1,27,1,27,1,1-14,-80.03491209163374,40.486334194921206
1979131,0114N00358000000,225 TERMON GARDENS DR,"PITTSBURGH, PA",28.6,0,0,0,0,Residential,Brighton Heights,1,27,1,27,1,1-14,-80.04734226031219,40.48311256840934
1979132,0114N00332000000,132 TERMON GARDENS DR,"PITTSBURGH, PA",28.6,0,0,0,0,Residential,Brighton Heights,1,27,1,27,1,1-14,-80.04668186481769,40.482729549036875
1979133,0115N00302000000,1156 TERMON AVE,"IRVING, TX",85.78,0,0,0,0,Residential,Brighton Heights,1,27,1,27,1,1-14,-80.03239786706321,40.48401278301375
1979134,0075L00048000000,3309 CALIFORNIA AVE,"PITTSBURGH, PA",677.39,0,0,0,0,Residential,Brighton Heights,1,27,1,27,1,1-14,-80.03996148793594,40.47573459651955
1979135,0075H00026000000,MCCLURE AVE,"PITTSBURGH, PA",324.02,0,0,0,0,Residential,Brighton Heights,1,27,1,27,1,1-14,-80.03565207496352,40.47873660266358
1979136,0114N00316000000,147 TERMON GARDENS DR,"PITTSBURGH, PA",28.6,0,0,0,0,Residential,Brighton Heights,1,27,1,27,1,1-14,-80.0463653846883,40.48238739251568
1979137,0114N00314000000,141 TERMON GARDENS DR,"PITTSBURGH, PA",28.6,0,0,0,0,Residential,Brighton Heights,1,27,1,27,1,1-14,-80.04632666516859,40.48246744128758
1979138,0114N00322000000,161 TERMON GARDENS DR,"PITTSBURGH, PA",160.1,0,0,0,0,Residential,Brighton Heights,1,27,1,27,1,1-14,-80.0466953899672,40.48212116542792
1979139,0114M00299000000,1258 GOE AVE,"POMONA, CA",648.79,0,0,0,0,Residential,Brighton Heights,1,27,1,27,1,1-14,-80.03476801373687,40.48436942602146
1979140,0076E00175000000,3328 BRIGHTON RD,"PITTSBURGH, PA",196.47,0,0,0,0,Residential,Brighton Heights,1,27,1,27,1,1-14,-80.03136415236747,40.4774277353158
1979141,0076E00174000000,3326 BRIGHTON RD,"WEST HEMPSTEAD, NY",609.94,0,0,0,0,Residential,Brighton Heights,1,27,1,27,1,1-14,-80.03129033227822,40.47734212235412
1979142,0075M00081000000,3323 MCCLURE AVE,"PITTSBURGH, PA",133.03,0,0,0,0,Residential,Brighton Heights,1,27,1,27,1,1-14,-80.03682141666961,40.47642307779178
1979143,0114K00196000000,3931 CALIFORNIA AVE,"IRVING, TX",678.54,0,0,0,0,Residential,Brighton Heights,1,27,1,27,1,1-14,-80.0431151533309,40.485742277387594
1979144,0114G00137000000,3917 BRANDON RD,"PITTSBURGH, PA",882.9,0,0,0,0,Residential,Brighton Heights,1,27,1,27,1,1-14,-80.03818157608593,40.48772160298859
1979145,0114G00040000000,3933 BRIGHTON RD,"DALLAS, TX",324.97,0,0,0,0,Residential,Brighton Heights,1,27,1,27,1,1-14,-80.03912019993082,40.48703846985666
1979146,0075L00200000000,3400 MASSACHUSETTS AVE,"DES MOINES, IA",589.72,0,0,0,0,Residential,Brighton Heights,1,27,1,27,1,1-14,-80.03892842818507,40.47653304683156
1979147,0114N00312000000,135 TERMON GARDENS DR,"PITTSBURGH, PA",28.6,0,0,0,0,Residential,Brighton Heights,1,27,1,27,1,1-14,-80.0462890610313,40.48254905388988
1979148,0115E00013000000,113 COBBLER CIR,"IRVING, TX",1866.73,0,0,0,0,Residential,Brighton Heights,1,27,1,27,1,1-14,-80.028826515299,40.486812922384665
1979149,0114N00356000000,231 TERMON GARDENS DR,"PITTSBURGH, PA",28.6,0,0,0,0,Residential,Brighton Heights,1,27,1,27,1,1-14,-80.04730525529757,40.483197291896936
1979150,0114P00178000000,1902 TERMON AVE,"PITTSBURGH, PA",425.32,0,0,0,0,Residential,Brighton Heights,1,27,1,27,1,1-14,-80.04352686387429,40.4826397297547
1979151,0114M00020000000,3801 BRIGHTON RD,"ALLISON PARK, PA",5054.71,0,0,0,0,Commercial,Brighton Heights,1,27,1,27,1,1-14,-80.03624605388771,40.48451189499793
1979152,0114F00027000000,4024 BRIGHTON RD,"PITTSBURGH, PA",1456.94,0,0,0,0,Residential,Brighton Heights,1,27,1,27,1,1-14,-80.04124191550174,40.4883186081211
1979153,0114S00180000000,3720 ATKINS ST,"PITTSBURGH, PA",187.67,0,0,0,0,Residential,Brighton Heights,1,27,1,27,1,1-14,-80.03349342094732,40.484151610596925
1979154,0114G00084000000,3960 BRIGHTON RD,"PITTSBURGH, PA",161.63,0,0,0,0,Residential,Brighton Heights,1,27,1,27,1,1-14,-80.03981821678951,40.487686966138895
1979155,0114M00090000000,3802 BRIGHTON RD,"OAKDALE, PA",25.62,0,0,0,0,Commercial,Brighton Heights,1,27,1,27,1,1-14,-80.03559473199061,40.48465211010076
1979156,0114K00195000000,3929 CALIFORNIA AVE,"IRVING, TX",703.33,0,0,0,0,Residential,Brighton Heights,1,27,1,27,1,1-14,-80.0431678889726,40.4856040953653
1979157,0115A00113000000,1100 HALLER ST,"BRADFORDWOODS, PA",905.36,0,0,0,0,Residential,Brighton Heights,1,27,1,27,1,1-14,-80.0324897916962,40.49010282155393
1979158,0075G00084000000,3432 CALIFORNIA AVE,"PITTSBURGH, PA",498.23,0,0,0,0,Residential,Brighton Heights,1,27,1,27,1,1-14,-80.03985178189147,40.47738713867588
1979159,0114L00173000000,3810 CALIFORNIA AVE,"PITTSBURGH, PA",394.55,0,0,0,0,Residential,Brighton Heights,1,27,1,27,1,1-14,-80.04085985926606,40.48494304767032
1979160,0114R00003000000,3805 CALIFORNIA AVE,"IRVING, TX",76.17,0,0,0,0,Commercial,Brighton Heights,1,27,1,27,1,1-14,-80.040827395944,40.48424687100431
1979161,0115E00007000000,107 COBBLER CIR,"IRVING, TX",2567.4,0,0,0,0,Residential,Brighton Heights,1,27,1,27,1,1-14,-80.02865398521665,40.48706586679021
1979162,0114N00304000000,113 TERMON GARDENS DR,"PITTSBURGH, PA",6787.27,0,0,0,0,Residential,Brighton Heights,1,27,1,27,1,1-14,-80.0461309377374,40.48286995127408
1979163,0114R00199000000,1413 COOPER AVE,"DES MOINES, IA",704.07,0,0,0,0,Residential,Brighton Heights,1,27,1,27,1,1-14,-80.03732863729182,40.483462885128795
1979164,0114N00366000000,201 TERMON GARDENS DR,"PITTSBURGH, PA",28.6,0,0,0,0,Residential,Brighton Heights,1,27,1,27,1,1-14,-80.04750995821969,40.482774456267926
1979165,0115P00207000000,696 WOODS RUN AVE,"PITTSBURGH, PA",191.18,0,0,0,0,Residential,Brighton Heights,1,26,1,26,1,1-14,-80.0260175179507,40.48402659871242
1979166,0115E00262000000,1023 REISS ST,"PITTSBURGH, PA",25.8,0,0,0,0,Residential,Brighton Heights,1,27,1,27,1,1-14,-80.03025055529939,40.488444456703824
1979167,0114N00350000000,208 TERMON GARDENS DR,"PITTSBURGH, PA",28.6,0,0,0,0,Residential,Brighton Heights,1,27,1,27,1,1-14,-80.04705324643038,40.48273627933636
1979168,0075L00081000000,1622 HYBLA ST,"IRVING, TX",585.9,0,0,0,0,Residential,Brighton Heights,6,27,1,27,1,1-14,-80.03778607835386,40.4746987395967
1979169,0114J00038000000,3850 WILKSBORO AVE,"PITTSBURGH, PA",1081.47,0,0,0,0,Residential,Brighton Heights,1,27,1,27,1,1-14,-80.0457471137028,40.484610841026495
1979170,0075M00072000000,3303 MCCLURE AVE,"PITTSBURGH, PA",946.76,0,0,0,0,Residential,Brighton Heights,1,27,1,27,1,1-14,-80.03660735835561,40.47580197958912
1979171,0075C00003000000,1624 ORCHLEE ST,"PITTSBURGH, PA",1197.72,0,0,0,0,Residential,Brighton Heights,1,27,1,27,1,1-14,-80.04088750487554,40.481373507718224
1979172,0075B00126000000,VERNER AVE,"PITTSBURGH, PA",20.98,0,0,0,0,Residential,Brighton Heights,1,27,1,27,1,1-14,-80.04263117588143,40.48153426965149
1979173,0114N00328000000,120 TERMON GARDENS DR,"PITTSBURGH, PA",28.6,0,0,0,0,Residential,Brighton Heights,1,27,1,27,1,1-14,-80.04659905423203,40.48289980902688
1979174,0075H00101000000,MCCLURE AVE,"PITTSBURGH, PA",505.1,0,0,0,0,Commercial,Brighton Heights,1,27,1,27,1,1-14,-80.03530779899856,40.478516856643424
1979175,0114N00326000000,114 TERMON GARDENS DR,"PITTSBURGH, PA",28.6,0,0,0,0,Residential,Brighton Heights,1,27,1,27,1,1-14,-80.04655779475976,40.48298623995191
1979176,0114S00134000000,3707 PARVISS ST,"PITTSBURGH, PA",1276.17,0,0,0,0,Residential,Brighton Heights,1,27,1,27,1,1-14,-80.03477276391557,40.4834618765978
1979177,0075B00334000000,MEXICO ST,"HARRISON CITY, PA",224.91,0,0,0,0,Commercial,Brighton Heights,1,27,1,27,1,1-14,-80.04178592046408,40.48050630054029
1979178,0075G00176000000,3424 MASSACHUSETTS AVE,"DES MOINES, IA",444.86,0,0,0,0,Residential,Brighton Heights,1,27,1,27,1,1-14,-80.0391321644418,40.47721883523178
1979179,0076E00092000000,3447 CAMPUS ST,"PITTSBURGH, PA",1528.63,0,0,0,0,Residential,Brighton Heights,1,27,1,27,1,1-14,-80.02945599109842,40.47883639677188
1979180,0114N00340000000,238 TERMON GARDENS DR,"PITTSBURGH, PA",6064.91,0,0,0,0,Residential,Brighton Heights,1,27,1,27,1,1-14,-80.04682721384867,40.48319740790175
1979181,0075D00194000002,1301 DAVIS AVE,"PITTSBURGH, PA",749.83,0,0,0,0,Commercial,Brighton Heights,1,27,1,27,1,1-14,-80.03426826568445,40.48139235132793
1979182,0114L00179000000,3819 CALIFORNIA AVE,"PHILADELPHIA, PA",867.57,0,0,0,0,Residential,Brighton Heights,1,27,1,27,1,1-14,-80.04105404898895,40.484392340246735
1979183,0114N00352000000,200 TERMON GARDENS DR,"PITTSBURGH, PA",28.6,0,0,0,0,Residential,Brighton Heights,1,27,1,27,1,1-14,-80.04709300932227,40.48264997577398
1979184,0115N00005000000,3699 HARBISON AVE,"PITTSBURGH, PA",1532.44,0,0,0,0,Residential,Brighton Heights,1,27,1,27,1,1-14,-80.02908298690252,40.48412421456486
1979185,0075D00160000000,3504 SHADELAND AVE,"PITTSBURGH, PA",1058.57,0,0,0,0,Residential,Brighton Heights,1,27,1,27,1,1-14,-80.03399063228429,40.479573144333656
1979186,0075G00156000000,1619 FALCK AVE,"PITTSBURGH, PA",1266.33,0,0,0,0,Residential,Brighton Heights,1,27,1,27,1,1-14,-80.03952287790041,40.4779813231307
1979187,0075C00240000000,1444 DAVIS AVE,"CHARLOTTE, NC",600.4,0,0,0,0,Residential,Brighton Heights,1,27,1,27,1,1-14,-80.03784135558524,40.48110939261022
1979188,0115P00213000000,698 WOODS RUN AVE,"PITTSBURGH, PA",1414.27,0,0,0,0,Residential,Brighton Heights,1,26,1,26,1,1-14,-80.0257626259826,40.483860274603686
1979189,0114M00288000000,1253 BENTON AVE,"PITTSBURGH, PA",3461.32,0,0,0,0,Commercial,Brighton Heights,1,27,1,27,1,1-14,-80.03465955836332,40.48480291059012
1979190,0114P00180000000,1904 TERMON AVE,"PITTSBURGH, PA",709.67,0,0,0,0,Residential,Brighton Heights,1,27,1,27,1,1-14,-80.04366709506121,40.48267582537725
1979191,0075D00172000000,3516 SHADELAND AVE,"PITTSBURGH, PA",29.03,0,0,0,0,Residential,Brighton Heights,1,27,1,27,1,1-14,-80.03413492729096,40.48021660824381
1979192,0114N00364000000,207 TERMON GARDENS DR,"PITTSBURGH, PA",28.6,0,0,0,0,Residential,Brighton Heights,1,27,1,27,1,1-14,-80.04746975192086,40.482860612052605
1979193,0114K00174000000,CALIFORNIA AVE,"PITTSBURGH, PA",22.87,0,0,0,0,Residential,Brighton Heights,1,27,1,27,1,1-14,-80.04147087700089,40.48465439974184
1979194,0114N00348000000,214 TERMON GARDENS DR,"PITTSBURGH, PA",28.6,0,0,0,0,Residential,Brighton Heights,1,27,1,27,1,1-14,-80.04701212097984,40.48282257815784
1979195,0114C00036000000,1439 CLIFFVIEW RD,"IRVING, TX",37.2,0,0,0,0,Residential,Brighton Heights,1,27,1,27,1,1-14,-80.03869777157075,40.49041491777989
1979196,0076E00046000000,1134 WOODS RUN AVE,"PITTSBURGH, PA",71.95,0,0,0,0,Commercial,Brighton Heights,1,27,1,27,1,1-14,-80.0298917214954,40.47750683351706
1979197,0114M00238000000,1206 BENTON AVE,"PHILADELPHIA, PA",667.35,0,0,0,0,Residential,Brighton Heights,1,27,1,27,1,1-14,-80.0335843320335,40.48612210617949
1979198,0076A00243000000,CORONA ST,"PITTSBURGH, PA",173.46,0,0,0,0,Residential,Brighton Heights,1,27,1,27,1,1-14,-80.03147222719335,40.47971964754949
1979199,0114H00066000000,211 RICHBARN RD,"PITTSBURGH, PA",810.79,0,0,0,0,Residential,Brighton Heights,1,27,1,27,1,1-14,-80.03593433262523,40.48686125837144
1979200,0075G00325000000,3458 FLEMING AVE,"IRVING, TX",50.7,0,0,0,0,Commercial,Brighton Heights,1,27,1,27,1,1-14,-80.03849241812006,40.47841116152104
1979201,0114S00172000000,3721 ATKINS ST,"PITTSBURGH, PA",1494.32,0,0,0,0,Residential,Brighton Heights,1,27,1,27,1,1-14,-80.03399885947326,40.484120208653
1979202,0114L00075000000,3926 WINSHIRE ST,"PITTSBURGH, PA",1124.54,0,0,0,0,Residential,Brighton Heights,1,27,1,27,1,1-14,-80.03993848356873,40.48604927893698
1979203,0075M00215000000,1311 STOKES WAY,"PITTSBURGH, PA",676.64,0,0,0,0,Residential,Brighton Heights,1,27,1,27,1,1-14,-80.03362075200654,40.47706082986979
1979204,0076A00232000000,3516 BRIGHTON RD,"CLEVELAND, OH",1134.08,0,0,0,0,Residential,Brighton Heights,1,27,1,27,1,1-14,-80.0308121040998,40.47963553312962
1979205,0114N00334000000,138 TERMON GARDENS DR,"PITTSBURGH, PA",28.6,0,0,0,0,Residential,Brighton Heights,1,27,1,27,1,1-14,-80.04672334114515,40.482643680068776
1979206,0114L00121000000,3915 WINSHIRE ST,"PITTSBURGH, PA",1134.83,0,0,0,0,Residential,Brighton Heights,1,27,1,27,1,1-14,-80.03974277236486,40.48556901701132
1979207,0115E00273000000,5 SAGWA ST,"PITTSBURGH, PA",614.48,0,0,0,0,Residential,Brighton Heights,1,27,1,27,1,1-14,-80.02956779648694,40.48879139350847
1979208,0075B00097000000,1801 TERMON AVE,"PITTSBURGH, PA",1797.63,0,0,0,0,Residential,Brighton Heights,1,27,1,27,1,1-14,-80.04283317318051,40.481924302134814
1979209,0114L00222000000,1725 KLEBER ST,"LEWISTON, ME",1275.88,0,0,0,0,Residential,Brighton Heights,1,27,1,27,1,1-14,-80.0379812699534,40.48629682927783
1979210,0076E00054000000,3318 RIGEL ST,"PITTSBURGH, PA",429.27,0,0,0,0,Residential,Brighton Heights,1,27,1,27,1,1-14,-80.0307697594344,40.47704889802083
1979211,0075B00293000000,1808 COTTAGE PL,"PITTSBURGH, PA",401.86,0,0,0,0,Residential,Brighton Heights,1,27,1,27,1,1-14,-80.04239900447601,40.4804035795156
1979212,0075B00275000000,1806 DAVIS AVE,"PITTSBURGH, PA",367,0,0,0,0,Residential,Brighton Heights,1,27,1,27,1,1-14,-80.04217120826911,40.479990610587954
1979213,0114P00125000000,1809 TERMON AVE,"PITTSBURGH, PA",1547.67,0,0,0,0,Residential,Brighton Heights,1,27,1,27,1,1-14,-80.04318872999747,40.482033645409054
1979214,0096A00279000000,2410 ALWYN ST,"PITTSBURGH, PA",1652.51,0,0,0,0,Residential,Brookline,4,32,4,32,6,4-26,-80.01293529630735,40.39327283443666
